[
  {
    "id": "wd-Q11908709",
    "name": "Battle of Apameia",
    "year": -1500,
    "era": "biblical",
    "location": {
      "lat": 35.4183,
      "lng": 36.3986
    },
    "tier": 3,
    "description": "Battle of Apameia, fought in 1500 BCE."
  },
  {
    "id": "wd-Q733364",
    "name": "Battle of Megiddo",
    "year": -1456,
    "era": "biblical",
    "location": {
      "lat": 32.5853,
      "lng": 35.1844
    },
    "tier": 3,
    "description": "Battle of Megiddo, fought in 1456 BCE."
  },
  {
    "id": "wd-Q11908710",
    "name": "Battle of Arinnanda",
    "year": -1324,
    "era": "biblical",
    "location": {
      "lat": 37.9333,
      "lng": 27.6833
    },
    "tier": 3,
    "description": "Battle of Arinnanda, fought in 1324 BCE."
  },
  {
    "id": "wd-Q203729",
    "name": "Battle of Kadesh",
    "year": -1273,
    "era": "biblical",
    "location": {
      "lat": 34.5555,
      "lng": 36.498
    },
    "tier": 3,
    "description": "Battle of Kadesh, fought in 1273 BCE."
  },
  {
    "id": "wd-Q25517452",
    "name": "Battle of the Tollense River",
    "year": -1249,
    "era": "biblical",
    "location": {
      "lat": 53.7432,
      "lng": 13.3108
    },
    "tier": 3,
    "description": "Battle of the Tollense River, fought in 1249 BCE."
  },
  {
    "id": "wd-Q844639",
    "name": "Battle of Djahy",
    "year": -1177,
    "era": "biblical",
    "location": {
      "lat": 32.7667,
      "lng": 35.3333
    },
    "tier": 3,
    "description": "Battle of Djahy, fought in 1177 BCE."
  },
  {
    "id": "wd-Q1036947",
    "name": "Battle of the Delta",
    "year": -1177,
    "era": "biblical",
    "location": {
      "lat": 30.9,
      "lng": 31.1167
    },
    "tier": 3,
    "description": "Battle of the Delta, fought in 1177 BCE."
  },
  {
    "id": "wd-Q849474",
    "name": "Battle of Qarqar",
    "year": -852,
    "era": "biblical",
    "location": {
      "lat": 35.7426,
      "lng": 36.3305
    },
    "tier": 2,
    "description": "The Battle of Qarqar, part of the Assyrian conquest of Aram."
  },
  {
    "id": "wd-Q1267122",
    "name": "Assyrian siege of Jerusalem",
    "year": -700,
    "era": "biblical",
    "location": {
      "lat": 31.7683,
      "lng": 35.2137
    },
    "tier": 2,
    "description": "The Assyrian siege of Jerusalem, part of the Sennacherib's campaign in the Levant."
  },
  {
    "id": "wd-Q15908564",
    "name": "Battle of Changshao",
    "year": -683,
    "era": "biblical",
    "location": {
      "lat": 36.3739,
      "lng": 117.721
    },
    "tier": 3,
    "description": "Battle of Changshao, fought in 683 BCE."
  },
  {
    "id": "wd-Q4872472",
    "name": "Battle of Susa",
    "year": -646,
    "era": "biblical",
    "location": {
      "lat": 32.1892,
      "lng": 48.2578
    },
    "tier": 2,
    "description": "The Battle of Susa, part of the Assyrian conquest of Persia."
  },
  {
    "id": "wd-Q10943933",
    "name": "Battle of Loulin",
    "year": -644,
    "era": "biblical",
    "location": {
      "lat": 32.8667,
      "lng": 117.5667
    },
    "tier": 3,
    "description": "Battle of Loulin, fought in 644 BCE."
  },
  {
    "id": "wd-Q2313318",
    "name": "Battle of Chengpu",
    "year": -631,
    "era": "biblical",
    "location": {
      "lat": 34.6711,
      "lng": 114.529
    },
    "tier": 2,
    "description": "The Battle of Chengpu, part of the Spring and Autumn period."
  },
  {
    "id": "wd-Q4870346",
    "name": "Battle of Arrapha",
    "year": -615,
    "era": "biblical",
    "location": {
      "lat": 35.4667,
      "lng": 44.3167
    },
    "tier": 3,
    "description": "Battle of Arrapha, fought in 615 BCE."
  },
  {
    "id": "wd-Q612286",
    "name": "Fall of Nineveh",
    "year": -611,
    "era": "biblical",
    "location": {
      "lat": 36.3594,
      "lng": 43.1528
    },
    "tier": 2,
    "description": "The Fall of Nineveh, part of the Medo-Babylonian conquest of the Assyrian Empire."
  },
  {
    "id": "wd-Q913818",
    "name": "Battle of Megiddo",
    "year": -608,
    "era": "biblical",
    "location": {
      "lat": 32.5833,
      "lng": 35.1833
    },
    "tier": 3,
    "description": "Battle of Megiddo, fought in 608 BCE."
  },
  {
    "id": "wd-Q633560",
    "name": "Battle of Carchemish",
    "year": -604,
    "era": "biblical",
    "location": {
      "lat": 36.8297,
      "lng": 38.015
    },
    "tier": 2,
    "description": "The Battle of Carchemish, part of the Ancient Egypt."
  },
  {
    "id": "wd-Q2401276",
    "name": "Battle of Hamath",
    "year": -604,
    "era": "biblical",
    "location": {
      "lat": 35.1333,
      "lng": 36.75
    },
    "tier": 3,
    "description": "Battle of Hamath, fought in 604 BCE."
  },
  {
    "id": "wd-Q1288667",
    "name": "Battle of Bi",
    "year": -596,
    "era": "biblical",
    "location": {
      "lat": 34.7878,
      "lng": 113.3919
    },
    "tier": 3,
    "description": "Battle of Bi, fought in 596 BCE."
  },
  {
    "id": "wd-Q4870298",
    "name": "Battle of An",
    "year": -588,
    "era": "biblical",
    "location": {
      "lat": 36.7286,
      "lng": 117.0639
    },
    "tier": 3,
    "description": "Battle of An, fought in 588 BCE."
  },
  {
    "id": "wd-Q890341",
    "name": "Battle of Thymbra",
    "year": -546,
    "era": "biblical",
    "location": {
      "lat": 38.6667,
      "lng": 27.8333
    },
    "tier": 2,
    "description": "The Battle of Thymbra, part of the Cyrus the Great."
  },
  {
    "id": "wd-Q1568965",
    "name": "Battle of Pteria",
    "year": -546,
    "era": "biblical",
    "location": {
      "lat": 39.9167,
      "lng": 35.3333
    },
    "tier": 2,
    "description": "The Battle of Pteria, part of the Cyrus the Great."
  },
  {
    "id": "wd-Q3434300",
    "name": "Battle of Opis",
    "year": -538,
    "era": "biblical",
    "location": {
      "lat": 33.1814,
      "lng": 44.7
    },
    "tier": 2,
    "description": "The Battle of Opis, part of the Cyrus the Great."
  },
  {
    "id": "wd-Q28169617",
    "name": "Fall of Babylon",
    "year": -538,
    "era": "biblical",
    "location": {
      "lat": 32.5425,
      "lng": 44.4211
    },
    "tier": 3,
    "description": "Fall of Babylon, fought in 538 BCE."
  },
  {
    "id": "wd-Q544239",
    "name": "Battle of Pelusium",
    "year": -524,
    "era": "biblical",
    "location": {
      "lat": 31.0416,
      "lng": 32.5451
    },
    "tier": 2,
    "description": "The Battle of Pelusium, part of the First Achaemenid conquest of Egypt."
  },
  {
    "id": "wd-Q1644792",
    "name": "Battle of Lake Regillus",
    "year": -496,
    "era": "biblical",
    "location": {
      "lat": 41.8819,
      "lng": 12.6972
    },
    "tier": 2,
    "description": "The Battle of Lake Regillus, part of the Latin War."
  },
  {
    "id": "wd-Q427565",
    "name": "Battle of Lade",
    "year": -493,
    "era": "biblical",
    "location": {
      "lat": 37.55,
      "lng": 27.1
    },
    "tier": 2,
    "description": "The Battle of Lade, part of the Ionian Revolt."
  },
  {
    "id": "wd-Q31900",
    "name": "Battle of Marathon",
    "year": -489,
    "era": "biblical",
    "location": {
      "lat": 38.1181,
      "lng": 23.9783
    },
    "tier": 1,
    "description": "The Battle of Marathon, part of the First Persian invasion of Greece."
  },
  {
    "id": "wd-Q3636328",
    "name": "Battle of Antium",
    "year": -483,
    "era": "biblical",
    "location": {
      "lat": 41.4472,
      "lng": 12.6283
    },
    "tier": 2,
    "description": "The Battle of Antium, part of the Roman-Volscian Wars."
  },
  {
    "id": "wd-Q3636508",
    "name": "Battle of Longula",
    "year": -483,
    "era": "biblical",
    "location": {
      "lat": 41.5879,
      "lng": 12.6061
    },
    "tier": 2,
    "description": "The Battle of Longula, part of the Roman-Volscian Wars."
  },
  {
    "id": "wd-Q131969",
    "name": "Battle of Thermopylae",
    "year": -479,
    "era": "biblical",
    "location": {
      "lat": 38.7958,
      "lng": 22.5369
    },
    "tier": 1,
    "description": "The Battle of Thermopylae, part of the Second Persian invasion of Greece."
  },
  {
    "id": "wd-Q1138660",
    "name": "Battle of Himera",
    "year": -479,
    "era": "biblical",
    "location": {
      "lat": 37.9717,
      "lng": 13.8114
    },
    "tier": 2,
    "description": "The Battle of Himera, part of the First Greco-Carthaginian War."
  },
  {
    "id": "wd-Q3636654",
    "name": "Battle of Veii",
    "year": -479,
    "era": "biblical",
    "location": {
      "lat": 42.0239,
      "lng": 12.4014
    },
    "tier": 2,
    "description": "The Battle of Veii, part of the Roman-Etruscan Wars."
  },
  {
    "id": "wd-Q178850",
    "name": "Battle of Salamis",
    "year": -479,
    "era": "biblical",
    "location": {
      "lat": 37.9514,
      "lng": 23.5667
    },
    "tier": 1,
    "description": "The Battle of Salamis, part of the Second Persian invasion of Greece."
  },
  {
    "id": "wd-Q747679",
    "name": "Battle of Artemisium",
    "year": -479,
    "era": "biblical",
    "location": {
      "lat": 39.0527,
      "lng": 23.3178
    },
    "tier": 2,
    "description": "The Battle of Artemisium, part of the Greco-Persian Wars."
  },
  {
    "id": "wd-Q204636",
    "name": "Battle of Plataea",
    "year": -478,
    "era": "biblical",
    "location": {
      "lat": 38.24,
      "lng": 23.318
    },
    "tier": 2,
    "description": "The Battle of Plataea, part of the Greco-Persian Wars."
  },
  {
    "id": "wd-Q503982",
    "name": "Battle of Mycale",
    "year": -478,
    "era": "biblical",
    "location": {
      "lat": 37.6909,
      "lng": 27.1574
    },
    "tier": 2,
    "description": "The Battle of Mycale, part of the Greco-Persian Wars."
  },
  {
    "id": "wd-Q914210",
    "name": "Battle of Lize",
    "year": -477,
    "era": "biblical",
    "location": {
      "lat": 30.8997,
      "lng": 120.953
    },
    "tier": 2,
    "description": "The Battle of Lize, part of the Warring States period."
  },
  {
    "id": "wd-Q2487876",
    "name": "Battle of the Cremera",
    "year": -476,
    "era": "biblical",
    "location": {
      "lat": 42.0288,
      "lng": 12.4245
    },
    "tier": 3,
    "description": "Battle of the Cremera, fought in 476 BCE."
  },
  {
    "id": "wd-Q3636238",
    "name": "Battle of the Janiculum",
    "year": -475,
    "era": "biblical",
    "location": {
      "lat": 41.8917,
      "lng": 12.4611
    },
    "tier": 2,
    "description": "The Battle of the Janiculum, part of the Wars between Rome and the Veii."
  },
  {
    "id": "wd-Q3636653",
    "name": "Battle of Veii",
    "year": -474,
    "era": "biblical",
    "location": {
      "lat": 42.0239,
      "lng": 12.4014
    },
    "tier": 2,
    "description": "The Battle of Veii, part of the Roman-Etruscan Wars."
  },
  {
    "id": "wd-Q1892581",
    "name": "Battle of Cumae",
    "year": -473,
    "era": "biblical",
    "location": {
      "lat": 40.8486,
      "lng": 14.0536
    },
    "tier": 3,
    "description": "Battle of Cumae, fought in 473 BCE."
  },
  {
    "id": "wd-Q2705449",
    "name": "Battle of Mount Algidus",
    "year": -457,
    "era": "biblical",
    "location": {
      "lat": 41.7231,
      "lng": 12.7694
    },
    "tier": 2,
    "description": "The Battle of Mount Algidus, part of the Roman expansion in Italy."
  },
  {
    "id": "wd-Q975376",
    "name": "Battle of Oenophyta",
    "year": -456,
    "era": "biblical",
    "location": {
      "lat": 38.3,
      "lng": 23.6333
    },
    "tier": 2,
    "description": "The Battle of Oenophyta, part of the First Peloponnesian War."
  },
  {
    "id": "wd-Q1187461",
    "name": "Battle of Tanagra",
    "year": -456,
    "era": "biblical",
    "location": {
      "lat": 38.3167,
      "lng": 23.5333
    },
    "tier": 3,
    "description": "Battle of Tanagra, fought in 456 BCE."
  },
  {
    "id": "wd-Q930550",
    "name": "Battle of Coronea",
    "year": -446,
    "era": "biblical",
    "location": {
      "lat": 38.35,
      "lng": 22.9667
    },
    "tier": 2,
    "description": "The Battle of Coronea, part of the First Peloponnesian War."
  },
  {
    "id": "wd-Q2518498",
    "name": "Battle of Corbio",
    "year": -445,
    "era": "biblical",
    "location": {
      "lat": 41.7773,
      "lng": 12.9177
    },
    "tier": 3,
    "description": "Battle of Corbio, fought in 445 BCE."
  },
  {
    "id": "wd-Q665716",
    "name": "Capture of Fidenae",
    "year": -434,
    "era": "biblical",
    "location": {
      "lat": 41.9744,
      "lng": 12.5133
    },
    "tier": 2,
    "description": "The Capture of Fidenae, part of the Roman-Etruscan Wars."
  },
  {
    "id": "wd-Q1356189",
    "name": "Battle of Potidaea",
    "year": -431,
    "era": "biblical",
    "location": {
      "lat": 40.1937,
      "lng": 23.3278
    },
    "tier": 2,
    "description": "The Battle of Potidaea, part of the Peloponnesian War."
  },
  {
    "id": "wd-Q11908757",
    "name": "Battle of Plataea",
    "year": -430,
    "era": "biblical",
    "location": {
      "lat": 38.2167,
      "lng": 23.2667
    },
    "tier": 2,
    "description": "The Battle of Plataea, part of the Peloponnesian War."
  },
  {
    "id": "wd-Q1475533",
    "name": "Battle of Spartolos",
    "year": -428,
    "era": "biblical",
    "location": {
      "lat": 40.2832,
      "lng": 23.2954
    },
    "tier": 2,
    "description": "The Battle of Spartolos, part of the Peloponnesian War."
  },
  {
    "id": "wd-Q608021",
    "name": "Battle of Naupactus",
    "year": -428,
    "era": "biblical",
    "location": {
      "lat": 38.3914,
      "lng": 21.8297
    },
    "tier": 2,
    "description": "The Battle of Naupactus, part of the Peloponnesian War."
  },
  {
    "id": "wd-Q2665646",
    "name": "Battle of Rhium",
    "year": -428,
    "era": "biblical",
    "location": {
      "lat": 38.3167,
      "lng": 21.7667
    },
    "tier": 2,
    "description": "The Battle of Rhium, part of the Peloponnesian War."
  },
  {
    "id": "wd-Q617924",
    "name": "Battle of Olpae",
    "year": -425,
    "era": "biblical",
    "location": {
      "lat": 38.95,
      "lng": 21.1498
    },
    "tier": 2,
    "description": "The Battle of Olpae, part of the Archidamian War."
  },
  {
    "id": "wd-Q3636427",
    "name": "Battle of Fidenae",
    "year": -425,
    "era": "biblical",
    "location": {
      "lat": 41.9744,
      "lng": 12.5133
    },
    "tier": 2,
    "description": "The Battle of Fidenae, part of the Roman-Etruscan Wars."
  },
  {
    "id": "wd-Q176416",
    "name": "Battle of Sphacteria",
    "year": -424,
    "era": "biblical",
    "location": {
      "lat": 36.9301,
      "lng": 21.6657
    },
    "tier": 2,
    "description": "The Battle of Sphacteria, part of the Peloponnesian War."
  },
  {
    "id": "wd-Q670128",
    "name": "Battle of Pylos",
    "year": -424,
    "era": "biblical",
    "location": {
      "lat": 36.9167,
      "lng": 21.7
    },
    "tier": 2,
    "description": "The Battle of Pylos, part of the Peloponnesian War."
  },
  {
    "id": "wd-Q1424844",
    "name": "Battle of Delium",
    "year": -423,
    "era": "biblical",
    "location": {
      "lat": 38.3481,
      "lng": 23.6492
    },
    "tier": 2,
    "description": "The Battle of Delium, part of the Peloponnesian War."
  },
  {
    "id": "wd-Q637544",
    "name": "Battle of Amphipolis",
    "year": -421,
    "era": "biblical",
    "location": {
      "lat": 40.8237,
      "lng": 23.847
    },
    "tier": 2,
    "description": "The Battle of Amphipolis, part of the Archidamian War."
  },
  {
    "id": "wd-Q1362053",
    "name": "Battle of Mantinea",
    "year": -417,
    "era": "biblical",
    "location": {
      "lat": 37.6,
      "lng": 22.4
    },
    "tier": 2,
    "description": "The Battle of Mantinea, part of the Peloponnesian War."
  },
  {
    "id": "wd-Q2889436",
    "name": "Battle of Melos",
    "year": -414,
    "era": "biblical",
    "location": {
      "lat": 36.6833,
      "lng": 24.4167
    },
    "tier": 2,
    "description": "The Battle of Melos, part of the Peloponnesian War."
  },
  {
    "id": "wd-Q2119676",
    "name": "Battle of Cynossema",
    "year": -410,
    "era": "biblical",
    "location": {
      "lat": 40.1424,
      "lng": 26.3878
    },
    "tier": 2,
    "description": "The Battle of Cynossema, part of the Peloponnesian War."
  },
  {
    "id": "wd-Q524871",
    "name": "Battle of Cyzicus",
    "year": -409,
    "era": "biblical",
    "location": {
      "lat": 40.38,
      "lng": 27.89
    },
    "tier": 2,
    "description": "The Battle of Cyzicus, part of the Peloponnesian War."
  },
  {
    "id": "wd-Q1278821",
    "name": "Battle of Selinus",
    "year": -408,
    "era": "biblical",
    "location": {
      "lat": 37.5836,
      "lng": 12.8247
    },
    "tier": 2,
    "description": "The Battle of Selinus, part of the Greco-Carthaginian War."
  },
  {
    "id": "wd-Q1287213",
    "name": "Battle of Himera",
    "year": -408,
    "era": "biblical",
    "location": {
      "lat": 37.9833,
      "lng": 13.7
    },
    "tier": 2,
    "description": "The Battle of Himera, part of the Greco-Carthaginian War."
  },
  {
    "id": "wd-Q540205",
    "name": "Battle of Veii",
    "year": -405,
    "era": "biblical",
    "location": {
      "lat": 42.0239,
      "lng": 12.4014
    },
    "tier": 2,
    "description": "The Battle of Veii, part of the Roman-Etruscan Wars."
  },
  {
    "id": "wd-Q389257",
    "name": "Battle of Arginusae",
    "year": -405,
    "era": "biblical",
    "location": {
      "lat": 39.0333,
      "lng": 26.8
    },
    "tier": 2,
    "description": "The Battle of Arginusae, part of the Decelean War."
  },
  {
    "id": "wd-Q975123",
    "name": "Battle of Notium",
    "year": -405,
    "era": "biblical",
    "location": {
      "lat": 37.9928,
      "lng": 26.8475
    },
    "tier": 2,
    "description": "The Battle of Notium, part of the Peloponnesian War."
  },
  {
    "id": "wd-Q2628112",
    "name": "Battle of Gela",
    "year": -404,
    "era": "biblical",
    "location": {
      "lat": 37.0667,
      "lng": 14.25
    },
    "tier": 2,
    "description": "The Battle of Gela, part of the Greco-Carthaginian War."
  },
  {
    "id": "wd-Q866862",
    "name": "Battle of Aegospotami",
    "year": -404,
    "era": "biblical",
    "location": {
      "lat": 40.25,
      "lng": 26.55
    },
    "tier": 2,
    "description": "The Battle of Aegospotami, part of the Decelean War."
  },
  {
    "id": "wd-Q4871830",
    "name": "Battle of Munichia",
    "year": -403,
    "era": "biblical",
    "location": {
      "lat": 37.941,
      "lng": 23.656
    },
    "tier": 2,
    "description": "The Battle of Munichia, part of the Phyle Campaign."
  },
  {
    "id": "wd-Q431205",
    "name": "Battle of Cunaxa",
    "year": -400,
    "era": "classical",
    "location": {
      "lat": 33.325,
      "lng": 44.08
    },
    "tier": 2,
    "description": "The Battle of Cunaxa, part of the the Ten Thousand."
  },
  {
    "id": "wd-Q4244801",
    "name": "Battle of Messene",
    "year": -396,
    "era": "classical",
    "location": {
      "lat": 38.1833,
      "lng": 15.55
    },
    "tier": 2,
    "description": "The Battle of Messene, part of the Second Greco-Carthaginian War."
  },
  {
    "id": "wd-Q4269619",
    "name": "Battle of Catana",
    "year": -396,
    "era": "classical",
    "location": {
      "lat": 37.5028,
      "lng": 15.0872
    },
    "tier": 2,
    "description": "The Battle of Catana, part of the Second Greco-Carthaginian War."
  },
  {
    "id": "wd-Q2118879",
    "name": "Battle of Haliartus",
    "year": -394,
    "era": "classical",
    "location": {
      "lat": 38.3792,
      "lng": 23.0878
    },
    "tier": 2,
    "description": "The Battle of Haliartus, part of the Corinthian War."
  },
  {
    "id": "wd-Q28669027",
    "name": "Battle of Sardis",
    "year": -394,
    "era": "classical",
    "location": {
      "lat": 38.4883,
      "lng": 28.0403
    },
    "tier": 2,
    "description": "The Battle of Sardis, part of the Spartan–Persian War."
  },
  {
    "id": "wd-Q733113",
    "name": "Battle of Coronea",
    "year": -393,
    "era": "classical",
    "location": {
      "lat": 38.35,
      "lng": 22.9667
    },
    "tier": 2,
    "description": "The Battle of Coronea, part of the Corinthian War."
  },
  {
    "id": "wd-Q1151812",
    "name": "Battle of Cnidus",
    "year": -393,
    "era": "classical",
    "location": {
      "lat": 36.6858,
      "lng": 27.375
    },
    "tier": 2,
    "description": "The Battle of Cnidus, part of the Spartan–Persian War."
  },
  {
    "id": "wd-Q1671704",
    "name": "Battle of Nemea",
    "year": -393,
    "era": "classical",
    "location": {
      "lat": 37.8089,
      "lng": 22.7103
    },
    "tier": 2,
    "description": "The Battle of Nemea, part of the Corinthian War."
  },
  {
    "id": "wd-Q4207050",
    "name": "Battle of Abacaenum",
    "year": -392,
    "era": "classical",
    "location": {
      "lat": 38.05,
      "lng": 15.1
    },
    "tier": 2,
    "description": "The Battle of Abacaenum, part of the Second Greco-Carthaginian War."
  },
  {
    "id": "wd-Q278903",
    "name": "Battle of Lechaeum",
    "year": -390,
    "era": "classical",
    "location": {
      "lat": 37.9341,
      "lng": 22.8842
    },
    "tier": 2,
    "description": "The Battle of Lechaeum, part of the Corinthian War."
  },
  {
    "id": "wd-Q655777",
    "name": "Battle of the Allia",
    "year": -386,
    "era": "classical",
    "location": {
      "lat": 42.0175,
      "lng": 12.52
    },
    "tier": 2,
    "description": "The Battle of the Allia, part of the Roman–Gallic Wars."
  },
  {
    "id": "wd-Q1887701",
    "name": "Battle of Naxos",
    "year": -375,
    "era": "classical",
    "location": {
      "lat": 37.1068,
      "lng": 25.3756
    },
    "tier": 2,
    "description": "The Battle of Naxos, part of the Boeotian War."
  },
  {
    "id": "wd-Q174253",
    "name": "Battle of Tegyra",
    "year": -374,
    "era": "classical",
    "location": {
      "lat": 38.5342,
      "lng": 22.9577
    },
    "tier": 2,
    "description": "The Battle of Tegyra, part of the Boeotian War."
  },
  {
    "id": "wd-Q20987758",
    "name": "Battle of Pelusium",
    "year": -372,
    "era": "classical",
    "location": {
      "lat": 31.0417,
      "lng": 32.545
    },
    "tier": 3,
    "description": "Battle of Pelusium, fought in 372 BCE."
  },
  {
    "id": "wd-Q461599",
    "name": "Battle of Leuctra",
    "year": -370,
    "era": "classical",
    "location": {
      "lat": 38.2656,
      "lng": 23.1667
    },
    "tier": 2,
    "description": "The Battle of Leuctra, part of the Boeotian War."
  },
  {
    "id": "wd-Q2334746",
    "name": "Battle of Cynoscephalae",
    "year": -363,
    "era": "classical",
    "location": {
      "lat": 39.36,
      "lng": 22.83
    },
    "tier": 2,
    "description": "The Battle of Cynoscephalae, part of the Boeotian War."
  },
  {
    "id": "wd-Q233399",
    "name": "Battle of Mantinea",
    "year": -361,
    "era": "classical",
    "location": {
      "lat": 37.6,
      "lng": 22.4
    },
    "tier": 2,
    "description": "The Battle of Mantinea, part of the Theban hegemony."
  },
  {
    "id": "wd-Q853635",
    "name": "Battle of Suessula",
    "year": -342,
    "era": "classical",
    "location": {
      "lat": 40.9833,
      "lng": 14.4
    },
    "tier": 2,
    "description": "The Battle of Suessula, part of the First War of the Samnites."
  },
  {
    "id": "wd-Q511578",
    "name": "Battle of Mount Gaurus",
    "year": -341,
    "era": "classical",
    "location": {
      "lat": 40.8486,
      "lng": 14.0536
    },
    "tier": 2,
    "description": "The Battle of Mount Gaurus, part of the First War of the Samnites."
  },
  {
    "id": "wd-Q2005185",
    "name": "Battle of Maling",
    "year": -341,
    "era": "classical",
    "location": {
      "lat": 35.8858,
      "lng": 115.3975
    },
    "tier": 2,
    "description": "The Battle of Maling, part of the Warring States period."
  },
  {
    "id": "wd-Q16253748",
    "name": "Battle of Saticula",
    "year": -341,
    "era": "classical",
    "location": {
      "lat": 41.0833,
      "lng": 14.5
    },
    "tier": 2,
    "description": "The Battle of Saticula, part of the First War of the Samnites."
  },
  {
    "id": "wd-Q1543543",
    "name": "Battle of the Crimissus",
    "year": -340,
    "era": "classical",
    "location": {
      "lat": 37.9408,
      "lng": 12.8375
    },
    "tier": 1,
    "description": "The Battle of the Crimissus, part of the Second Greco-Carthaginian War."
  },
  {
    "id": "wd-Q571269",
    "name": "Battle of Vesuvius",
    "year": -339,
    "era": "classical",
    "location": {
      "lat": 40.8211,
      "lng": 14.4261
    },
    "tier": 2,
    "description": "The Battle of Vesuvius, part of the Latin War."
  },
  {
    "id": "wd-Q200716",
    "name": "Battle of Chaeronea",
    "year": -337,
    "era": "classical",
    "location": {
      "lat": 38.495,
      "lng": 22.8475
    },
    "tier": 2,
    "description": "The Battle of Chaeronea, part of the Fourth Sacred War."
  },
  {
    "id": "wd-Q2237798",
    "name": "Battle of Thebes",
    "year": -334,
    "era": "classical",
    "location": {
      "lat": 38.3242,
      "lng": 23.3236
    },
    "tier": 2,
    "description": "The Battle of Thebes, part of the Alexander's Balkan campaign."
  },
  {
    "id": "battle-of-granicus",
    "name": "Battle of the Granicus",
    "year": -334,
    "era": "classical",
    "location": {
      "lat": 40.34,
      "lng": 27.08
    },
    "tier": 1,
    "description": "Alexander the Great's first major battle against the Persian Empire. The Macedonians crossed the Granicus River and routed the Persian satraps' forces, opening Anatolia to conquest.",
    "belligerents": [
      "Macedon",
      "Achaemenid Empire"
    ],
    "result": "Macedonian victory",
    "commanders": [
      "Alexander the Great",
      "Memnon of Rhodes"
    ],
    "warName": "Wars of Alexander",
    "significance": 2
  },
  {
    "id": "wd-Q192938",
    "name": "Battle of the Granicus",
    "year": -333,
    "era": "classical",
    "location": {
      "lat": 40.2281,
      "lng": 27.2422
    },
    "tier": 2,
    "description": "The Battle of the Granicus, part of the Wars of Alexander the Great."
  },
  {
    "id": "battle-of-issus",
    "name": "Battle of Issus",
    "year": -333,
    "era": "classical",
    "location": {
      "lat": 36.84,
      "lng": 36.18
    },
    "tier": 1,
    "description": "Alexander defeated Darius III in a narrow coastal plain near modern Iskenderun, Turkey. Darius fled the field, leaving his family to be captured.",
    "belligerents": [
      "Macedon",
      "Achaemenid Empire"
    ],
    "result": "Macedonian victory",
    "commanders": [
      "Alexander the Great",
      "Darius III"
    ],
    "warName": "Wars of Alexander",
    "significance": 1
  },
  {
    "id": "wd-Q201526",
    "name": "Battle of Issus",
    "year": -332,
    "era": "classical",
    "location": {
      "lat": 36.8379,
      "lng": 36.2111
    },
    "tier": 1,
    "description": "The Battle of Issus, part of the Wars of Alexander the Great."
  },
  {
    "id": "siege-of-tyre",
    "name": "Siege of Tyre",
    "year": -332,
    "era": "classical",
    "location": {
      "lat": 33.27,
      "lng": 35.2
    },
    "tier": 1,
    "description": "Alexander built a causeway to the island fortress of Tyre and besieged it for seven months, finally breaching the walls in one of antiquity's greatest siege operations.",
    "belligerents": [
      "Macedon",
      "Tyre"
    ],
    "result": "Macedonian victory",
    "commanders": [
      "Alexander the Great",
      "Azemilcus"
    ],
    "warName": "Wars of Alexander",
    "significance": 2
  },
  {
    "id": "wd-Q815233",
    "name": "Siege of Tyre",
    "year": -331,
    "era": "classical",
    "location": {
      "lat": 33.2708,
      "lng": 35.1961
    },
    "tier": 2,
    "description": "The Siege of Tyre, part of the Wars of Alexander the Great."
  },
  {
    "id": "battle-of-gaugamela",
    "name": "Battle of Gaugamela",
    "year": -331,
    "era": "classical",
    "location": {
      "lat": 36.56,
      "lng": 43.44
    },
    "tier": 1,
    "description": "The decisive battle that ended the Achaemenid Empire. Alexander's 47,000 men defeated Darius III's army of over 200,000 on a flat plain near modern Mosul, Iraq.",
    "belligerents": [
      "Macedon",
      "Achaemenid Empire"
    ],
    "result": "Decisive Macedonian victory",
    "commanders": [
      "Alexander the Great",
      "Darius III"
    ],
    "troopStrength": {
      "side1": 47000,
      "side2": 250000
    },
    "casualties": {
      "side1": 1200,
      "side2": 40000
    },
    "warName": "Wars of Alexander",
    "significance": 1
  },
  {
    "id": "wd-Q223220",
    "name": "Battle of Megalopolis",
    "year": -330,
    "era": "classical",
    "location": {
      "lat": 37.4011,
      "lng": 22.1422
    },
    "tier": 2,
    "description": "The Battle of Megalopolis, part of the War of Agis."
  },
  {
    "id": "wd-Q179670",
    "name": "Battle of Gaugamela",
    "year": -330,
    "era": "classical",
    "location": {
      "lat": 36.36,
      "lng": 43.25
    },
    "tier": 1,
    "description": "The Battle of Gaugamela, part of the Wars of Alexander the Great."
  },
  {
    "id": "wd-Q15197556",
    "name": "Battle of the Uxian Defile",
    "year": -330,
    "era": "classical",
    "location": {
      "lat": 32.1892,
      "lng": 48.2578
    },
    "tier": 2,
    "description": "The Battle of the Uxian Defile, part of the Wars of Alexander the Great."
  },
  {
    "id": "wd-Q112016",
    "name": "Battle of the Persian Gate on the Mountain",
    "year": -329,
    "era": "classical",
    "location": {
      "lat": 30.7083,
      "lng": 51.5986
    },
    "tier": 2,
    "description": "The Battle of the Persian Gate on the Mountain, part of the Wars of Alexander the Great."
  },
  {
    "id": "wd-Q123215",
    "name": "Battle of Jaxartes",
    "year": -328,
    "era": "classical",
    "location": {
      "lat": 40.2833,
      "lng": 69.6167
    },
    "tier": 2,
    "description": "The Battle of Jaxartes, part of the Wars of Alexander the Great."
  },
  {
    "id": "wd-Q3625055",
    "name": "Capture of Neapolis",
    "year": -326,
    "era": "classical",
    "location": {
      "lat": 40.8333,
      "lng": 14.25
    },
    "tier": 2,
    "description": "The Capture of Neapolis, part of the Second Samnite War."
  },
  {
    "id": "battle-of-hydaspes",
    "name": "Battle of the Hydaspes",
    "year": -326,
    "era": "classical",
    "location": {
      "lat": 32.49,
      "lng": 73.63
    },
    "tier": 1,
    "description": "Alexander's last great battle, fought against King Porus and his war elephants on the banks of the Hydaspes River in modern Pakistan.",
    "belligerents": [
      "Macedon",
      "Kingdom of Paurava"
    ],
    "result": "Macedonian victory",
    "commanders": [
      "Alexander the Great",
      "King Porus"
    ],
    "warName": "Wars of Alexander",
    "significance": 2
  },
  {
    "id": "wd-Q213074",
    "name": "Battle of the Hydaspes",
    "year": -325,
    "era": "classical",
    "location": {
      "lat": 32.8278,
      "lng": 73.6389
    },
    "tier": 2,
    "description": "The Battle of the Hydaspes, part of the Indian campaign of Alexander the Great."
  },
  {
    "id": "wd-Q4872539",
    "name": "Battle of Thermopylae",
    "year": -322,
    "era": "classical",
    "location": {
      "lat": 38.8053,
      "lng": 22.5628
    },
    "tier": 1,
    "description": "The Battle of Thermopylae, part of the Lamian War."
  },
  {
    "id": "wd-Q1429804",
    "name": "Battle of Crannon",
    "year": -321,
    "era": "classical",
    "location": {
      "lat": 39.5167,
      "lng": 22.35
    },
    "tier": 2,
    "description": "The Battle of Crannon, part of the Lamian War."
  },
  {
    "id": "wd-Q16330226",
    "name": "Battle of the Echinades",
    "year": -321,
    "era": "classical",
    "location": {
      "lat": 38.3036,
      "lng": 21.1108
    },
    "tier": 2,
    "description": "The Battle of the Echinades, part of the Lamian War."
  },
  {
    "id": "wd-Q2265548",
    "name": "Battle of Amorgos",
    "year": -321,
    "era": "classical",
    "location": {
      "lat": 36.5,
      "lng": 25.54
    },
    "tier": 2,
    "description": "The Battle of Amorgos, part of the Lamian War."
  },
  {
    "id": "wd-Q1720307",
    "name": "Battle of the Hellespont",
    "year": -320,
    "era": "classical",
    "location": {
      "lat": 40.0,
      "lng": 28.0
    },
    "tier": 2,
    "description": "The Battle of the Hellespont, part of the First War of the Diadochi."
  },
  {
    "id": "wd-Q1357977",
    "name": "Battle of the Caudine Forks",
    "year": -320,
    "era": "classical",
    "location": {
      "lat": 41.15,
      "lng": 14.5333
    },
    "tier": 2,
    "description": "The Battle of the Caudine Forks, part of the Second Samnite War."
  },
  {
    "id": "wd-Q991390",
    "name": "Battle of Cretopolis",
    "year": -318,
    "era": "classical",
    "location": {
      "lat": 37.375,
      "lng": 30.3217
    },
    "tier": 2,
    "description": "The Battle of Cretopolis, part of the Wars of the Diadochi."
  },
  {
    "id": "wd-Q1407018",
    "name": "Battle of Paraitacene",
    "year": -316,
    "era": "classical",
    "location": {
      "lat": 32.6333,
      "lng": 51.65
    },
    "tier": 2,
    "description": "The Battle of Paraitacene, part of the Second War of the Diadochi."
  },
  {
    "id": "wd-Q65066202",
    "name": "Siege of Megalopolis",
    "year": -316,
    "era": "classical",
    "location": {
      "lat": 37.4,
      "lng": 22.1333
    },
    "tier": 2,
    "description": "The Siege of Megalopolis, part of the Second War of the Diadochi."
  },
  {
    "id": "wd-Q2237367",
    "name": "Battle of Byzantium",
    "year": -316,
    "era": "classical",
    "location": {
      "lat": 40.2,
      "lng": 26.4
    },
    "tier": 2,
    "description": "The Battle of Byzantium, part of the Second War of the Diadochi."
  },
  {
    "id": "wd-Q954968",
    "name": "Battle of Gabiene",
    "year": -315,
    "era": "classical",
    "location": {
      "lat": 31.7772,
      "lng": 51.8016
    },
    "tier": 2,
    "description": "The Battle of Gabiene, part of the Second War of the Diadochi."
  },
  {
    "id": "wd-Q684113",
    "name": "Battle of Lautulae",
    "year": -314,
    "era": "classical",
    "location": {
      "lat": 41.2833,
      "lng": 13.25
    },
    "tier": 2,
    "description": "The Battle of Lautulae, part of the Second Samnite War."
  },
  {
    "id": "wd-Q1231054",
    "name": "Battle of Gaza",
    "year": -311,
    "era": "classical",
    "location": {
      "lat": 31.5167,
      "lng": 34.45
    },
    "tier": 2,
    "description": "The Battle of Gaza, part of the Third War of the Diadochi."
  },
  {
    "id": "wd-Q1754459",
    "name": "Battle of Himera",
    "year": -310,
    "era": "classical",
    "location": {
      "lat": 37.0667,
      "lng": 15.3
    },
    "tier": 2,
    "description": "The Battle of Himera, part of the Third Greco-Carthaginian War."
  },
  {
    "id": "wd-Q94414",
    "name": "Battle of Lake Vadimo",
    "year": -309,
    "era": "classical",
    "location": {
      "lat": 42.4842,
      "lng": 12.3232
    },
    "tier": 2,
    "description": "The Battle of Lake Vadimo, part of the Second Samnite War."
  },
  {
    "id": "wd-Q1247317",
    "name": "Battle of Salamis",
    "year": -305,
    "era": "classical",
    "location": {
      "lat": 35.1667,
      "lng": 33.9167
    },
    "tier": 1,
    "description": "The Battle of Salamis, part of the Wars of the Diadochi."
  },
  {
    "id": "wd-Q1887733",
    "name": "Battle of Bovianum",
    "year": -304,
    "era": "classical",
    "location": {
      "lat": 41.4833,
      "lng": 14.4667
    },
    "tier": 2,
    "description": "The Battle of Bovianum, part of the Second Samnite War."
  },
  {
    "id": "wd-Q319124",
    "name": "Battle of Ipsus",
    "year": -300,
    "era": "classical",
    "location": {
      "lat": 38.95,
      "lng": 30.99
    },
    "tier": 2,
    "description": "The Battle of Ipsus, part of the Fourth War of the Diadochi."
  },
  {
    "id": "wd-Q2890214",
    "name": "Battle of Tifernum",
    "year": -296,
    "era": "classical",
    "location": {
      "lat": 43.4608,
      "lng": 12.2439
    },
    "tier": 2,
    "description": "The Battle of Tifernum, part of the Third Samnite War."
  },
  {
    "id": "wd-Q635839",
    "name": "Battle of Sentinum",
    "year": -294,
    "era": "classical",
    "location": {
      "lat": 43.4158,
      "lng": 12.8545
    },
    "tier": 2,
    "description": "The Battle of Sentinum, part of the Third Samnite War."
  },
  {
    "id": "wd-Q1799032",
    "name": "Battle of Camerinum",
    "year": -294,
    "era": "classical",
    "location": {
      "lat": 43.1403,
      "lng": 13.0689
    },
    "tier": 2,
    "description": "The Battle of Camerinum, part of the Third Samnite War."
  },
  {
    "id": "wd-Q1291237",
    "name": "Battle of Yique",
    "year": -292,
    "era": "classical",
    "location": {
      "lat": 34.5556,
      "lng": 112.4697
    },
    "tier": 3,
    "description": "Battle of Yique, fought in 292 BCE."
  },
  {
    "id": "wd-Q2292431",
    "name": "Battle of Arretium",
    "year": -283,
    "era": "classical",
    "location": {
      "lat": 43.463,
      "lng": 11.8833
    },
    "tier": 2,
    "description": "The Battle of Arretium, part of the Roman–Gallic Wars."
  },
  {
    "id": "wd-Q1482311",
    "name": "Battle of Lake Vadimo",
    "year": -282,
    "era": "classical",
    "location": {
      "lat": 42.484,
      "lng": 12.323
    },
    "tier": 2,
    "description": "The Battle of Lake Vadimo, part of the Roman-Etruscan Wars."
  },
  {
    "id": "wd-Q47299",
    "name": "Battle of Corupedium",
    "year": -280,
    "era": "classical",
    "location": {
      "lat": 38.5465,
      "lng": 27.6178
    },
    "tier": 2,
    "description": "The Battle of Corupedium, part of the Wars of the Diadochi."
  },
  {
    "id": "wd-Q744611",
    "name": "Battle of Heraclea",
    "year": -279,
    "era": "classical",
    "location": {
      "lat": 40.22,
      "lng": 16.6697
    },
    "tier": 2,
    "description": "The Battle of Heraclea, part of the Pyrrhic War."
  },
  {
    "id": "wd-Q3636635",
    "name": "Battle of Thurii",
    "year": -279,
    "era": "classical",
    "location": {
      "lat": 39.885,
      "lng": 17.2769
    },
    "tier": 3,
    "description": "Battle of Thurii, fought in 279 BCE."
  },
  {
    "id": "wd-Q756413",
    "name": "Battle of Asculum",
    "year": -278,
    "era": "classical",
    "location": {
      "lat": 41.2156,
      "lng": 15.5578
    },
    "tier": 2,
    "description": "The Battle of Asculum, part of the Pyrrhic War."
  },
  {
    "id": "wd-Q3636302",
    "name": "Battle of Thermopylae 279 BCE",
    "year": -278,
    "era": "classical",
    "location": {
      "lat": 38.8053,
      "lng": 22.5628
    },
    "tier": 1,
    "description": "The Battle of Thermopylae 279 BCE, part of the Gallic invasion of Greece."
  },
  {
    "id": "wd-Q4873050",
    "name": "Battle of the Strait of Messina",
    "year": -275,
    "era": "classical",
    "location": {
      "lat": 38.2458,
      "lng": 15.6325
    },
    "tier": 2,
    "description": "The Battle of the Strait of Messina, part of the Pyrrhic War."
  },
  {
    "id": "wd-Q1160070",
    "name": "Battle of Beneventum",
    "year": -274,
    "era": "classical",
    "location": {
      "lat": 41.1333,
      "lng": 14.7833
    },
    "tier": 2,
    "description": "The Battle of Beneventum, part of the Pyrrhic War."
  },
  {
    "id": "wd-Q96373234",
    "name": "Battle of Argos",
    "year": -271,
    "era": "classical",
    "location": {
      "lat": 37.6167,
      "lng": 22.7167
    },
    "tier": 2,
    "description": "The Battle of Argos, part of the Pyrrhus' invasion of the Peloponnese."
  },
  {
    "id": "wd-Q2478491",
    "name": "Battle of Messana",
    "year": -263,
    "era": "classical",
    "location": {
      "lat": 38.18,
      "lng": 15.5614
    },
    "tier": 2,
    "description": "The Battle of Messana, part of the First Punic War."
  },
  {
    "id": "wd-Q1195760",
    "name": "Battle of Changping",
    "year": -261,
    "era": "classical",
    "location": {
      "lat": 35.7981,
      "lng": 112.9239
    },
    "tier": 2,
    "description": "The Battle of Changping, part of the Warring States period."
  },
  {
    "id": "wd-Q917376",
    "name": "Battle of Agrigentum",
    "year": -260,
    "era": "classical",
    "location": {
      "lat": 37.3167,
      "lng": 13.5833
    },
    "tier": 2,
    "description": "The Battle of Agrigentum, part of the First Punic War."
  },
  {
    "id": "wd-Q3235767",
    "name": "Battle of Cos",
    "year": -260,
    "era": "classical",
    "location": {
      "lat": 36.85,
      "lng": 27.2333
    },
    "tier": 2,
    "description": "The Battle of Cos, part of the Chremonidean War."
  },
  {
    "id": "wd-Q277345",
    "name": "Battle of Mylae",
    "year": -259,
    "era": "classical",
    "location": {
      "lat": 38.2167,
      "lng": 15.2333
    },
    "tier": 2,
    "description": "The Battle of Mylae, part of the First Punic War."
  },
  {
    "id": "wd-Q1432659",
    "name": "Battle of the Lipari Islands",
    "year": -259,
    "era": "classical",
    "location": {
      "lat": 38.4725,
      "lng": 14.9608
    },
    "tier": 2,
    "description": "The Battle of the Lipari Islands, part of the First Punic War."
  },
  {
    "id": "wd-Q1886703",
    "name": "Battle of Sulci",
    "year": -257,
    "era": "classical",
    "location": {
      "lat": 39.0667,
      "lng": 8.45
    },
    "tier": 2,
    "description": "The Battle of Sulci, part of the First Punic War."
  },
  {
    "id": "wd-Q1355206",
    "name": "Battle of Tyndaris",
    "year": -256,
    "era": "classical",
    "location": {
      "lat": 38.1456,
      "lng": 15.0397
    },
    "tier": 2,
    "description": "The Battle of Tyndaris, part of the First Punic War."
  },
  {
    "id": "wd-Q6881",
    "name": "Battle of Cape Ecnomus",
    "year": -255,
    "era": "classical",
    "location": {
      "lat": 37.05,
      "lng": 13.9
    },
    "tier": 2,
    "description": "The Battle of Cape Ecnomus, part of the First Punic War."
  },
  {
    "id": "wd-Q6891",
    "name": "Battle of Bagradas",
    "year": -254,
    "era": "classical",
    "location": {
      "lat": 36.7975,
      "lng": 10.1659
    },
    "tier": 2,
    "description": "The Battle of Bagradas, part of the First Punic War."
  },
  {
    "id": "wd-Q963839",
    "name": "Battle of Adys",
    "year": -254,
    "era": "classical",
    "location": {
      "lat": 36.6085,
      "lng": 10.1717
    },
    "tier": 2,
    "description": "The Battle of Adys, part of the First Punic War."
  },
  {
    "id": "wd-Q9424298",
    "name": "Battle of Palermo",
    "year": -253,
    "era": "classical",
    "location": {
      "lat": 38.1167,
      "lng": 13.3667
    },
    "tier": 3,
    "description": "Battle of Palermo, fought in 253 BCE."
  },
  {
    "id": "wd-Q1476126",
    "name": "Battle of Panormus",
    "year": -250,
    "era": "classical",
    "location": {
      "lat": 38.1167,
      "lng": 13.3667
    },
    "tier": 2,
    "description": "The Battle of Panormus, part of the First Punic War."
  },
  {
    "id": "wd-Q379280",
    "name": "Battle of Mount Erice",
    "year": -248,
    "era": "classical",
    "location": {
      "lat": 38.1667,
      "lng": 13.35
    },
    "tier": 2,
    "description": "The Battle of Mount Erice, part of the First Punic War."
  },
  {
    "id": "wd-Q61999900",
    "name": "Battle of Phintias",
    "year": -248,
    "era": "classical",
    "location": {
      "lat": 37.1083,
      "lng": 13.9469
    },
    "tier": 3,
    "description": "Battle of Phintias, fought in 248 BCE."
  },
  {
    "id": "wd-Q590014",
    "name": "Battle of Drepana",
    "year": -248,
    "era": "classical",
    "location": {
      "lat": 38.01,
      "lng": 12.505
    },
    "tier": 2,
    "description": "The Battle of Drepana, part of the First Punic War."
  },
  {
    "id": "wd-Q1134649",
    "name": "Battle of the Aegates Islands",
    "year": -240,
    "era": "classical",
    "location": {
      "lat": 37.9667,
      "lng": 12.2
    },
    "tier": 2,
    "description": "The Battle of the Aegates Islands, part of the First Punic War."
  },
  {
    "id": "wd-Q928903",
    "name": "Battle of Utica",
    "year": -239,
    "era": "classical",
    "location": {
      "lat": 37.0581,
      "lng": 10.0629
    },
    "tier": 2,
    "description": "The Battle of Utica, part of the Mercenary War."
  },
  {
    "id": "wd-Q2888088",
    "name": "Battle of the Bagradas River",
    "year": -239,
    "era": "classical",
    "location": {
      "lat": 37.11,
      "lng": 10.13
    },
    "tier": 2,
    "description": "The Battle of the Bagradas River, part of the Mercenary War."
  },
  {
    "id": "wd-Q11688183",
    "name": "Battle of Helike",
    "year": -227,
    "era": "classical",
    "location": {
      "lat": 38.3811,
      "lng": -1.2761
    },
    "tier": 2,
    "description": "The Battle of Helike, part of the Barcid conquest of Hispania."
  },
  {
    "id": "wd-Q4871805",
    "name": "Battle of Mount Lycaeum",
    "year": -226,
    "era": "classical",
    "location": {
      "lat": 37.4569,
      "lng": 21.975
    },
    "tier": 2,
    "description": "The Battle of Mount Lycaeum, part of the Cleomenean War."
  },
  {
    "id": "wd-Q175985",
    "name": "Battle of Telamon",
    "year": -224,
    "era": "classical",
    "location": {
      "lat": 42.555,
      "lng": 11.133
    },
    "tier": 2,
    "description": "The Battle of Telamon, part of the Cisalpine Gaul War."
  },
  {
    "id": "wd-Q3623158",
    "name": "Battle of Faesulae",
    "year": -224,
    "era": "classical",
    "location": {
      "lat": 43.4603,
      "lng": 12.3864
    },
    "tier": 2,
    "description": "The Battle of Faesulae, part of the Roman–Gallic Wars."
  },
  {
    "id": "wd-Q204343",
    "name": "Battle of Sellasia",
    "year": -221,
    "era": "classical",
    "location": {
      "lat": 37.1667,
      "lng": 22.4167
    },
    "tier": 2,
    "description": "The Battle of Sellasia, part of the Cleomenean War."
  },
  {
    "id": "wd-Q675000",
    "name": "Battle of Clastidium",
    "year": -221,
    "era": "classical",
    "location": {
      "lat": 45.0167,
      "lng": 9.1333
    },
    "tier": 2,
    "description": "The Battle of Clastidium, part of the Roman–Gallic Wars."
  },
  {
    "id": "battle-of-trebia",
    "name": "Battle of the Trebia",
    "year": -218,
    "era": "classical",
    "location": {
      "lat": 45.05,
      "lng": 9.6
    },
    "tier": 1,
    "description": "Hannibal's first major victory in Italy. He lured a Roman army across the freezing Trebia River and annihilated it with a concealed flanking force.",
    "belligerents": [
      "Carthage",
      "Roman Republic"
    ],
    "result": "Carthaginian victory",
    "commanders": [
      "Hannibal Barca",
      "Tiberius Sempronius Longus"
    ],
    "warName": "Second Punic War",
    "significance": 2
  },
  {
    "id": "wd-Q271873",
    "name": "Battle of the Trebia",
    "year": -217,
    "era": "classical",
    "location": {
      "lat": 44.9875,
      "lng": 9.5675
    },
    "tier": 2,
    "description": "The Battle of the Trebia, part of the Second Punic War."
  },
  {
    "id": "wd-Q378957",
    "name": "Battle of Ticinus",
    "year": -217,
    "era": "classical",
    "location": {
      "lat": 45.25,
      "lng": 8.8667
    },
    "tier": 2,
    "description": "The Battle of Ticinus, part of the Second Punic War."
  },
  {
    "id": "wd-Q870783",
    "name": "Battle of Rhone Crossing",
    "year": -217,
    "era": "classical",
    "location": {
      "lat": 44.1383,
      "lng": 4.8097
    },
    "tier": 2,
    "description": "The Battle of Rhone Crossing, part of the Second Punic War."
  },
  {
    "id": "wd-Q1500211",
    "name": "Battle of Cissa",
    "year": -217,
    "era": "classical",
    "location": {
      "lat": 41.1157,
      "lng": 1.2496
    },
    "tier": 2,
    "description": "The Battle of Cissa, part of the Second Punic War."
  },
  {
    "id": "wd-Q113317",
    "name": "Battle of Lilybaeum",
    "year": -217,
    "era": "classical",
    "location": {
      "lat": 37.8,
      "lng": 12.4333
    },
    "tier": 2,
    "description": "The Battle of Lilybaeum, part of the Second Punic War."
  },
  {
    "id": "battle-of-lake-trasimene",
    "name": "Battle of Lake Trasimene",
    "year": -217,
    "era": "classical",
    "location": {
      "lat": 43.1,
      "lng": 12.11
    },
    "tier": 1,
    "description": "The largest ambush in military history. Hannibal trapped an entire Roman army against the lake, killing or capturing 30,000 men including the consul Flaminius.",
    "belligerents": [
      "Carthage",
      "Roman Republic"
    ],
    "result": "Carthaginian victory",
    "commanders": [
      "Hannibal Barca",
      "Gaius Flaminius"
    ],
    "warName": "Second Punic War",
    "significance": 2
  },
  {
    "id": "wd-Q207250",
    "name": "Battle of Lake Trasimene",
    "year": -216,
    "era": "classical",
    "location": {
      "lat": 43.1975,
      "lng": 12.085
    },
    "tier": 2,
    "description": "The Battle of Lake Trasimene, part of the Second Punic War."
  },
  {
    "id": "wd-Q630781",
    "name": "Battle of Raphia",
    "year": -216,
    "era": "classical",
    "location": {
      "lat": 31.2886,
      "lng": 34.2519
    },
    "tier": 2,
    "description": "The Battle of Raphia, part of the Fourth Syrian War."
  },
  {
    "id": "wd-Q999235",
    "name": "Battle of Ager Falernus",
    "year": -216,
    "era": "classical",
    "location": {
      "lat": 41.1833,
      "lng": 14.55
    },
    "tier": 2,
    "description": "The Battle of Ager Falernus, part of the Second Punic War."
  },
  {
    "id": "wd-Q1974201",
    "name": "Battle of Geronium",
    "year": -216,
    "era": "classical",
    "location": {
      "lat": 41.7618,
      "lng": 14.7334
    },
    "tier": 2,
    "description": "The Battle of Geronium, part of the Second Punic War."
  },
  {
    "id": "wd-Q48965466",
    "name": "Battle of Leontion",
    "year": -216,
    "era": "classical",
    "location": {
      "lat": 38.1197,
      "lng": 21.7919
    },
    "tier": 2,
    "description": "The Battle of Leontion, part of the Social War of 220-217 BCE."
  },
  {
    "id": "wd-Q2286942",
    "name": "Battle of Ebro River",
    "year": -216,
    "era": "classical",
    "location": {
      "lat": 40.72,
      "lng": 0.8631
    },
    "tier": 2,
    "description": "The Battle of Ebro River, part of the Second Punic War."
  },
  {
    "id": "battle-of-cannae",
    "name": "Battle of Cannae",
    "year": -216,
    "era": "classical",
    "location": {
      "lat": 41.31,
      "lng": 16.13
    },
    "tier": 1,
    "description": "Hannibal's masterpiece — a double envelopment that destroyed a Roman army of 86,000 men. The deadliest single day in European military history, studied in war colleges to this day.",
    "belligerents": [
      "Carthage",
      "Roman Republic"
    ],
    "result": "Decisive Carthaginian victory",
    "commanders": [
      "Hannibal Barca",
      "Varro/Paullus"
    ],
    "troopStrength": {
      "side1": 50000,
      "side2": 86000
    },
    "casualties": {
      "side1": 6000,
      "side2": 67000
    },
    "warName": "Second Punic War",
    "significance": 1
  },
  {
    "id": "wd-Q179591",
    "name": "Battle of Cannae",
    "year": -215,
    "era": "classical",
    "location": {
      "lat": 41.3064,
      "lng": 16.1325
    },
    "tier": 1,
    "description": "The Battle of Cannae, part of the Second Punic War."
  },
  {
    "id": "wd-Q925828",
    "name": "Battle of Nola",
    "year": -215,
    "era": "classical",
    "location": {
      "lat": 40.9261,
      "lng": 14.5275
    },
    "tier": 2,
    "description": "The Battle of Nola, part of the Second Punic War."
  },
  {
    "id": "wd-Q3636293",
    "name": "Battle of Silva Litana",
    "year": -215,
    "era": "classical",
    "location": {
      "lat": 44.4092,
      "lng": 11.0917
    },
    "tier": 2,
    "description": "The Battle of Silva Litana, part of the Second Punic War."
  },
  {
    "id": "wd-Q233402",
    "name": "Battle of Nola",
    "year": -214,
    "era": "classical",
    "location": {
      "lat": 40.9261,
      "lng": 14.5275
    },
    "tier": 2,
    "description": "The Battle of Nola, part of the Second Punic War."
  },
  {
    "id": "wd-Q1788933",
    "name": "Battle of Dertosa",
    "year": -214,
    "era": "classical",
    "location": {
      "lat": 40.8,
      "lng": 0.5167
    },
    "tier": 2,
    "description": "The Battle of Dertosa, part of the Second Punic War."
  },
  {
    "id": "wd-Q2095240",
    "name": "Battle of Cornus",
    "year": -214,
    "era": "classical",
    "location": {
      "lat": 39.31,
      "lng": 8.97
    },
    "tier": 2,
    "description": "The Battle of Cornus, part of the Second Punic War."
  },
  {
    "id": "wd-Q17622605",
    "name": "Battle of Cumae",
    "year": -214,
    "era": "classical",
    "location": {
      "lat": 40.8486,
      "lng": 14.0536
    },
    "tier": 2,
    "description": "The Battle of Cumae, part of the Second Punic War."
  },
  {
    "id": "wd-Q913464",
    "name": "Third Battle of Nola",
    "year": -213,
    "era": "classical",
    "location": {
      "lat": 40.9261,
      "lng": 14.5275
    },
    "tier": 2,
    "description": "The Third Battle of Nola, part of the Second Punic War."
  },
  {
    "id": "wd-Q1362016",
    "name": "Battle of Beneventum",
    "year": -213,
    "era": "classical",
    "location": {
      "lat": 41.1333,
      "lng": 14.7833
    },
    "tier": 2,
    "description": "The Battle of Beneventum, part of the Second Punic War."
  },
  {
    "id": "wd-Q18649505",
    "name": "Battle of Munda",
    "year": -213,
    "era": "classical",
    "location": {
      "lat": 37.35,
      "lng": -5.2167
    },
    "tier": 2,
    "description": "The Battle of Munda, part of the Second Punic War."
  },
  {
    "id": "wd-Q233363",
    "name": "Second Battle of Beneventum",
    "year": -211,
    "era": "classical",
    "location": {
      "lat": 41.1311,
      "lng": 14.7781
    },
    "tier": 2,
    "description": "The Second Battle of Beneventum, part of the Second Punic War."
  },
  {
    "id": "wd-Q427853",
    "name": "Battle of Capua",
    "year": -211,
    "era": "classical",
    "location": {
      "lat": 41.0833,
      "lng": 14.25
    },
    "tier": 2,
    "description": "The Battle of Capua, part of the Second Punic War."
  },
  {
    "id": "wd-Q1362014",
    "name": "Battle of the Silarus",
    "year": -211,
    "era": "classical",
    "location": {
      "lat": 40.4816,
      "lng": 14.9425
    },
    "tier": 2,
    "description": "The Battle of the Silarus, part of the Second Punic War."
  },
  {
    "id": "wd-Q1362023",
    "name": "First Battle of Tarentum",
    "year": -211,
    "era": "classical",
    "location": {
      "lat": 40.4667,
      "lng": 17.2333
    },
    "tier": 2,
    "description": "The First Battle of Tarentum, part of the Second Punic War."
  },
  {
    "id": "wd-Q1362035",
    "name": "Battle of Herdonia",
    "year": -211,
    "era": "classical",
    "location": {
      "lat": 41.3167,
      "lng": 15.6333
    },
    "tier": 2,
    "description": "The Battle of Herdonia, part of the Second Punic War."
  },
  {
    "id": "wd-Q2586793",
    "name": "Battle of Beneventum",
    "year": -211,
    "era": "classical",
    "location": {
      "lat": 41.1333,
      "lng": 14.7833
    },
    "tier": 2,
    "description": "The Battle of Beneventum, part of the Second Punic War."
  },
  {
    "id": "wd-Q2632522",
    "name": "Battle of Tarentum",
    "year": -211,
    "era": "classical",
    "location": {
      "lat": 40.4181,
      "lng": 17.2408
    },
    "tier": 2,
    "description": "The Battle of Tarentum, part of the Second Punic War."
  },
  {
    "id": "wd-Q233373",
    "name": "Battle of Capua",
    "year": -210,
    "era": "classical",
    "location": {
      "lat": 41.0833,
      "lng": 14.25
    },
    "tier": 2,
    "description": "The Battle of Capua, part of the Second Punic War."
  },
  {
    "id": "wd-Q1458235",
    "name": "Battle of the Upper Baetis",
    "year": -210,
    "era": "classical",
    "location": {
      "lat": 36.7833,
      "lng": -6.35
    },
    "tier": 2,
    "description": "The Battle of the Upper Baetis, part of the Second Punic War."
  },
  {
    "id": "wd-Q233386",
    "name": "Battle of Herdonia",
    "year": -209,
    "era": "classical",
    "location": {
      "lat": 41.3167,
      "lng": 15.6333
    },
    "tier": 2,
    "description": "The Battle of Herdonia, part of the Second Punic War."
  },
  {
    "id": "wd-Q1184835",
    "name": "Battle of Numistro",
    "year": -209,
    "era": "classical",
    "location": {
      "lat": 38.9756,
      "lng": 16.3198
    },
    "tier": 2,
    "description": "The Battle of Numistro, part of the Second Punic War."
  },
  {
    "id": "wd-Q15622355",
    "name": "Battle of Castulo",
    "year": -209,
    "era": "classical",
    "location": {
      "lat": 41.2283,
      "lng": 1.2305
    },
    "tier": 2,
    "description": "The Battle of Castulo, part of the Second Punic War."
  },
  {
    "id": "wd-Q21234831",
    "name": "Battle of Sapriportis",
    "year": -209,
    "era": "classical",
    "location": {
      "lat": 40.5833,
      "lng": 17.05
    },
    "tier": 2,
    "description": "The Battle of Sapriportis, part of the Second Punic War."
  },
  {
    "id": "wd-Q233406",
    "name": "Second Battle of Tarentum",
    "year": -208,
    "era": "classical",
    "location": {
      "lat": 40.4667,
      "lng": 17.2333
    },
    "tier": 2,
    "description": "The Second Battle of Tarentum, part of the Second Punic War."
  },
  {
    "id": "wd-Q778730",
    "name": "Battle of Canusium",
    "year": -208,
    "era": "classical",
    "location": {
      "lat": 41.2366,
      "lng": 16.066
    },
    "tier": 2,
    "description": "The Battle of Canusium, part of the Second Punic War."
  },
  {
    "id": "wd-Q1591145",
    "name": "Battle of New Carthage",
    "year": -208,
    "era": "classical",
    "location": {
      "lat": 37.6,
      "lng": -0.9825
    },
    "tier": 2,
    "description": "The Battle of New Carthage, part of the Second Punic War."
  },
  {
    "id": "wd-Q2498565",
    "name": "First Battle of Lamia",
    "year": -208,
    "era": "classical",
    "location": {
      "lat": 38.9,
      "lng": 22.4333
    },
    "tier": 2,
    "description": "The First Battle of Lamia, part of the First Macedonian War."
  },
  {
    "id": "wd-Q2498572",
    "name": "Second Battle of Lamia",
    "year": -208,
    "era": "classical",
    "location": {
      "lat": 38.9,
      "lng": 22.4333
    },
    "tier": 2,
    "description": "The Second Battle of Lamia, part of the First Macedonian War."
  },
  {
    "id": "wd-Q2632506",
    "name": "Battle of Tarentum",
    "year": -208,
    "era": "classical",
    "location": {
      "lat": 40.4181,
      "lng": 17.2408
    },
    "tier": 2,
    "description": "The Battle of Tarentum, part of the Second Punic War."
  },
  {
    "id": "wd-Q728550",
    "name": "Battle of Baecula",
    "year": -207,
    "era": "classical",
    "location": {
      "lat": 38.0167,
      "lng": -3.1
    },
    "tier": 2,
    "description": "The Battle of Baecula, part of the Second Punic War."
  },
  {
    "id": "wd-Q11688220",
    "name": "Battle of Petelia",
    "year": -207,
    "era": "classical",
    "location": {
      "lat": 39.265,
      "lng": 17.0489
    },
    "tier": 2,
    "description": "The Battle of Petelia, part of the Second Punic War."
  },
  {
    "id": "wd-Q848056",
    "name": "Battle of the Metaurus",
    "year": -206,
    "era": "classical",
    "location": {
      "lat": 43.7824,
      "lng": 13.0145
    },
    "tier": 2,
    "description": "The Battle of the Metaurus, part of the Second Punic War."
  },
  {
    "id": "wd-Q1500202",
    "name": "Battle of Grumentum",
    "year": -206,
    "era": "classical",
    "location": {
      "lat": 40.2839,
      "lng": 15.8897
    },
    "tier": 2,
    "description": "The Battle of Grumentum, part of the Second Punic War."
  },
  {
    "id": "wd-Q2330778",
    "name": "Battle of Mantinea",
    "year": -206,
    "era": "classical",
    "location": {
      "lat": 37.6,
      "lng": 22.4
    },
    "tier": 2,
    "description": "The Battle of Mantinea, part of the First Macedonian War."
  },
  {
    "id": "wd-Q3270429",
    "name": "Battle of Julu",
    "year": -206,
    "era": "classical",
    "location": {
      "lat": 37.0667,
      "lng": 114.4833
    },
    "tier": 2,
    "description": "The Battle of Julu, part of the Chu–Han Contention."
  },
  {
    "id": "wd-Q4870658",
    "name": "Battle of Carmona",
    "year": -206,
    "era": "classical",
    "location": {
      "lat": 37.4667,
      "lng": -5.6333
    },
    "tier": 2,
    "description": "The Battle of Carmona, part of the Second Punic War."
  },
  {
    "id": "wd-Q1055755",
    "name": "Battle of Ilipa",
    "year": -205,
    "era": "classical",
    "location": {
      "lat": 37.5183,
      "lng": -5.9783
    },
    "tier": 2,
    "description": "The Battle of Ilipa, part of the Second Punic War."
  },
  {
    "id": "wd-Q3822130",
    "name": "Battle of Carteia",
    "year": -205,
    "era": "classical",
    "location": {
      "lat": 36.7833,
      "lng": -6.35
    },
    "tier": 2,
    "description": "The Battle of Carteia, part of the Second Punic War."
  },
  {
    "id": "wd-Q21152928",
    "name": "Battle of Iliturgi",
    "year": -205,
    "era": "classical",
    "location": {
      "lat": 37.9583,
      "lng": -3.8226
    },
    "tier": 2,
    "description": "The Battle of Iliturgi, part of the Second Punic War."
  },
  {
    "id": "wd-Q3822486",
    "name": "Battle of Carteia",
    "year": -205,
    "era": "classical",
    "location": {
      "lat": 36.1603,
      "lng": -5.4151
    },
    "tier": 2,
    "description": "The Battle of Carteia, part of the Second Punic War."
  },
  {
    "id": "wd-Q847402",
    "name": "Battle of Pengcheng",
    "year": -204,
    "era": "classical",
    "location": {
      "lat": 34.2667,
      "lng": 117.1667
    },
    "tier": 2,
    "description": "The Battle of Pengcheng, part of the Chu–Han Contention."
  },
  {
    "id": "wd-Q65082946",
    "name": "Battle of Anyi",
    "year": -204,
    "era": "classical",
    "location": {
      "lat": 28.845,
      "lng": 115.5489
    },
    "tier": 3,
    "description": "Battle of Anyi, fought in 204 BCE."
  },
  {
    "id": "wd-Q1474647",
    "name": "Battle of Crotona",
    "year": -203,
    "era": "classical",
    "location": {
      "lat": 39.0833,
      "lng": 17.1167
    },
    "tier": 2,
    "description": "The Battle of Crotona, part of the Second Punic War."
  },
  {
    "id": "wd-Q1660792",
    "name": "Battle of Cirta",
    "year": -202,
    "era": "classical",
    "location": {
      "lat": 36.3675,
      "lng": 6.6119
    },
    "tier": 2,
    "description": "The Battle of Cirta, part of the Second Punic War."
  },
  {
    "id": "wd-Q1353773",
    "name": "Battle of the Great Plains",
    "year": -202,
    "era": "classical",
    "location": {
      "lat": 37.0579,
      "lng": 10.0626
    },
    "tier": 2,
    "description": "The Battle of the Great Plains, part of the Second Punic War."
  },
  {
    "id": "wd-Q2979703",
    "name": "Po Valley raid",
    "year": -202,
    "era": "classical",
    "location": {
      "lat": 45.4667,
      "lng": 9.1667
    },
    "tier": 2,
    "description": "The Po Valley raid, part of the Second Punic War."
  },
  {
    "id": "wd-Q2888065",
    "name": "Battle of Utica",
    "year": -202,
    "era": "classical",
    "location": {
      "lat": 37.0565,
      "lng": 10.0623
    },
    "tier": 2,
    "description": "The Battle of Utica, part of the Second Punic War."
  },
  {
    "id": "battle-of-zama",
    "name": "Battle of Zama",
    "year": -202,
    "era": "classical",
    "location": {
      "lat": 36.3,
      "lng": 8.31
    },
    "tier": 1,
    "description": "Scipio Africanus defeated Hannibal on his home soil, ending the Second Punic War. Rome became the undisputed master of the western Mediterranean.",
    "belligerents": [
      "Roman Republic",
      "Carthage"
    ],
    "result": "Decisive Roman victory",
    "commanders": [
      "Scipio Africanus",
      "Hannibal Barca"
    ],
    "troopStrength": {
      "side1": 40000,
      "side2": 50000
    },
    "casualties": {
      "side1": 4000,
      "side2": 20000
    },
    "warName": "Second Punic War",
    "significance": 1
  },
  {
    "id": "wd-Q200056",
    "name": "Battle of Zama",
    "year": -201,
    "era": "classical",
    "location": {
      "lat": 36.2989,
      "lng": 9.4492
    },
    "tier": 1,
    "description": "The Battle of Zama, part of the Second Punic War."
  },
  {
    "id": "wd-Q1349891",
    "name": "Battle of Gaixia",
    "year": -201,
    "era": "classical",
    "location": {
      "lat": 33.3278,
      "lng": 117.5511
    },
    "tier": 2,
    "description": "The Battle of Gaixia, part of the Chu–Han Contention."
  },
  {
    "id": "wd-Q932326",
    "name": "Battle of Lade",
    "year": -200,
    "era": "classical",
    "location": {
      "lat": 37.5302,
      "lng": 27.2784
    },
    "tier": 2,
    "description": "The Battle of Lade, part of the Cretan War of 205-200 BCE."
  },
  {
    "id": "wd-Q1389951",
    "name": "Battle of Panium",
    "year": -199,
    "era": "classical",
    "location": {
      "lat": 33.2472,
      "lng": 35.6958
    },
    "tier": 2,
    "description": "The Battle of Panium, part of the Fifth Syrian War."
  },
  {
    "id": "wd-Q3491975",
    "name": "Battle of Cremona",
    "year": -199,
    "era": "classical",
    "location": {
      "lat": 45.1333,
      "lng": 10.0333
    },
    "tier": 2,
    "description": "The Battle of Cremona, part of the Roman–Gallic Wars."
  },
  {
    "id": "wd-Q3233509",
    "name": "Battle of the Aous",
    "year": -197,
    "era": "classical",
    "location": {
      "lat": 40.6428,
      "lng": 19.3172
    },
    "tier": 2,
    "description": "The Battle of the Aous, part of the Second Macedonian War."
  },
  {
    "id": "wd-Q391087",
    "name": "Battle of Cynoscephalae",
    "year": -196,
    "era": "classical",
    "location": {
      "lat": 39.4167,
      "lng": 22.5667
    },
    "tier": 2,
    "description": "The Battle of Cynoscephalae, part of the Second Macedonian War."
  },
  {
    "id": "wd-Q5486518",
    "name": "Battle of Corinth",
    "year": -196,
    "era": "classical",
    "location": {
      "lat": 38.6333,
      "lng": 22.7667
    },
    "tier": 3,
    "description": "Battle of Corinth, fought in 196 BCE."
  },
  {
    "id": "wd-Q3774767",
    "name": "Battle of Gythium",
    "year": -194,
    "era": "classical",
    "location": {
      "lat": 36.7617,
      "lng": 22.5661
    },
    "tier": 2,
    "description": "The Battle of Gythium, part of the War against Nabis."
  },
  {
    "id": "wd-Q11908712",
    "name": "Batlle of Emporion",
    "year": -194,
    "era": "classical",
    "location": {
      "lat": 42.1333,
      "lng": 3.1167
    },
    "tier": 2,
    "description": "The Batlle of Emporion, part of the Iberian revolt."
  },
  {
    "id": "wd-Q11908765",
    "name": "Battle of Rhode",
    "year": -194,
    "era": "classical",
    "location": {
      "lat": 42.2639,
      "lng": 3.1794
    },
    "tier": 2,
    "description": "The Battle of Rhode, part of the Iberian revolt."
  },
  {
    "id": "wd-Q8244435",
    "name": "Battle of Selasia",
    "year": -194,
    "era": "classical",
    "location": {
      "lat": 37.1667,
      "lng": 22.4167
    },
    "tier": 2,
    "description": "The Battle of Selasia, part of the War against Nabis."
  },
  {
    "id": "wd-Q17374942",
    "name": "Battle of Bergium",
    "year": -194,
    "era": "classical",
    "location": {
      "lat": 42.1,
      "lng": 1.8456
    },
    "tier": 2,
    "description": "The Battle of Bergium, part of the Iberian revolt."
  },
  {
    "id": "wd-Q3502194",
    "name": "Battle of Placentia",
    "year": -193,
    "era": "classical",
    "location": {
      "lat": 45.0333,
      "lng": 9.7
    },
    "tier": 2,
    "description": "The Battle of Placentia, part of the Roman–Gallic Wars."
  },
  {
    "id": "wd-Q3656049",
    "name": "Battle of Mutina",
    "year": -192,
    "era": "classical",
    "location": {
      "lat": 44.65,
      "lng": 10.9333
    },
    "tier": 2,
    "description": "The Battle of Mutina, part of the Roman–Gallic Wars."
  },
  {
    "id": "wd-Q783058",
    "name": "Battle of Thermopylae",
    "year": -190,
    "era": "classical",
    "location": {
      "lat": 38.8,
      "lng": 22.5333
    },
    "tier": 1,
    "description": "The Battle of Thermopylae, part of the Roman–Seleucid War."
  },
  {
    "id": "wd-Q3636407",
    "name": "Battle of Corycus",
    "year": -190,
    "era": "classical",
    "location": {
      "lat": 38.1037,
      "lng": 26.5924
    },
    "tier": 2,
    "description": "The Battle of Corycus, part of the Roman–Seleucid War."
  },
  {
    "id": "wd-Q917811",
    "name": "Battle of Magnesia",
    "year": -189,
    "era": "classical",
    "location": {
      "lat": 38.6167,
      "lng": 27.4333
    },
    "tier": 2,
    "description": "The Battle of Magnesia, part of the Roman–Seleucid War."
  },
  {
    "id": "wd-Q1288632",
    "name": "Battle of Myonessus",
    "year": -189,
    "era": "classical",
    "location": {
      "lat": 38.1772,
      "lng": 26.785
    },
    "tier": 2,
    "description": "The Battle of Myonessus, part of the Roman–Seleucid War."
  },
  {
    "id": "wd-Q3242126",
    "name": "Battle of the Eurymedon",
    "year": -189,
    "era": "classical",
    "location": {
      "lat": 36.83,
      "lng": 31.1731
    },
    "tier": 2,
    "description": "The Battle of the Eurymedon, part of the Roman–Seleucid War."
  },
  {
    "id": "wd-Q4871806",
    "name": "Battle of Mount Olympus",
    "year": -188,
    "era": "classical",
    "location": {
      "lat": 40.0694,
      "lng": 29.2214
    },
    "tier": 2,
    "description": "The Battle of Mount Olympus, part of the Galatian War."
  },
  {
    "id": "wd-Q2347053",
    "name": "Battle of Callinicus",
    "year": -170,
    "era": "classical",
    "location": {
      "lat": 39.6321,
      "lng": 22.4199
    },
    "tier": 2,
    "description": "The Battle of Callinicus, part of the Third Macedonian War."
  },
  {
    "id": "wd-Q504739",
    "name": "Battle of Pydna",
    "year": -167,
    "era": "classical",
    "location": {
      "lat": 40.251,
      "lng": 22.4736
    },
    "tier": 2,
    "description": "The Battle of Pydna, part of the Third Macedonian War."
  },
  {
    "id": "wd-Q2920325",
    "name": "Battle of the Ascent of Lebonah",
    "year": -166,
    "era": "classical",
    "location": {
      "lat": 32.0544,
      "lng": 35.2408
    },
    "tier": 2,
    "description": "The Battle of the Ascent of Lebonah, part of the Maccabean Revolt."
  },
  {
    "id": "wd-Q1268339",
    "name": "Battle of Beth Horon",
    "year": -165,
    "era": "classical",
    "location": {
      "lat": 31.8855,
      "lng": 35.1154
    },
    "tier": 2,
    "description": "The Battle of Beth Horon, part of the Maccabean Revolt."
  },
  {
    "id": "wd-Q1268317",
    "name": "Battle of Emmaus",
    "year": -164,
    "era": "classical",
    "location": {
      "lat": 31.8393,
      "lng": 34.9895
    },
    "tier": 2,
    "description": "The Battle of Emmaus, part of the Maccabean Revolt."
  },
  {
    "id": "wd-Q1290572",
    "name": "Battle of Beth Zur",
    "year": -163,
    "era": "classical",
    "location": {
      "lat": 31.5894,
      "lng": 35.0942
    },
    "tier": 2,
    "description": "The Battle of Beth Zur, part of the Maccabean Revolt."
  },
  {
    "id": "wd-Q1268349",
    "name": "Battle of Beth Zechariah",
    "year": -161,
    "era": "classical",
    "location": {
      "lat": 31.664,
      "lng": 35.1232
    },
    "tier": 2,
    "description": "The Battle of Beth Zechariah, part of the Maccabean Revolt."
  },
  {
    "id": "wd-Q1268331",
    "name": "Battle of Adasa",
    "year": -160,
    "era": "classical",
    "location": {
      "lat": 31.8333,
      "lng": 35.2333
    },
    "tier": 2,
    "description": "The Battle of Adasa, part of the Maccabean Revolt."
  },
  {
    "id": "wd-Q1281077",
    "name": "Battle of Elasa",
    "year": -159,
    "era": "classical",
    "location": {
      "lat": 31.8761,
      "lng": 35.2083
    },
    "tier": 2,
    "description": "The Battle of Elasa, part of the Maccabean Revolt."
  },
  {
    "id": "wd-Q815160",
    "name": "Siege of Carthage",
    "year": -148,
    "era": "classical",
    "location": {
      "lat": 36.8531,
      "lng": 10.3231
    },
    "tier": 2,
    "description": "The Siege of Carthage, part of the Third Punic War."
  },
  {
    "id": "wd-Q9173324",
    "name": "First Battle of Nepheris",
    "year": -148,
    "era": "classical",
    "location": {
      "lat": 36.6151,
      "lng": 10.3831
    },
    "tier": 2,
    "description": "The First Battle of Nepheris, part of the Third Punic War."
  },
  {
    "id": "wd-Q27863955",
    "name": "Battle of Lake Tunis",
    "year": -148,
    "era": "classical",
    "location": {
      "lat": 36.8167,
      "lng": 10.25
    },
    "tier": 2,
    "description": "The Battle of Lake Tunis, part of the Third Punic War."
  },
  {
    "id": "wd-Q2617894",
    "name": "Battle of Pydna",
    "year": -147,
    "era": "classical",
    "location": {
      "lat": 40.3667,
      "lng": 22.5833
    },
    "tier": 2,
    "description": "The Battle of Pydna, part of the Fourth Macedonian War."
  },
  {
    "id": "wd-Q7443103",
    "name": "Second Battle of Nepheris",
    "year": -146,
    "era": "classical",
    "location": {
      "lat": 36.6151,
      "lng": 10.3831
    },
    "tier": 2,
    "description": "The Second Battle of Nepheris, part of the Third Punic War."
  },
  {
    "id": "wd-Q4872996",
    "name": "Battle of the Port of Carthage",
    "year": -146,
    "era": "classical",
    "location": {
      "lat": 37.0,
      "lng": 10.5
    },
    "tier": 2,
    "description": "The Battle of the Port of Carthage, part of the Third Punic War."
  },
  {
    "id": "wd-Q587983",
    "name": "Battle of Corinth",
    "year": -145,
    "era": "classical",
    "location": {
      "lat": 37.9053,
      "lng": 22.8802
    },
    "tier": 2,
    "description": "The Battle of Corinth, part of the Achaean War."
  },
  {
    "id": "wd-Q16933440",
    "name": "Battle of Scarpheia",
    "year": -145,
    "era": "classical",
    "location": {
      "lat": 38.8,
      "lng": 22.55
    },
    "tier": 2,
    "description": "The Battle of Scarpheia, part of the Achaean War."
  },
  {
    "id": "wd-Q2542852",
    "name": "Battle of the Oenoparus",
    "year": -144,
    "era": "classical",
    "location": {
      "lat": 36.1989,
      "lng": 36.1606
    },
    "tier": 2,
    "description": "The Battle of the Oenoparus, part of the Seleucid Civil War of 147–137 BCE."
  },
  {
    "id": "wd-Q722331",
    "name": "Battle of Mayi",
    "year": -132,
    "era": "classical",
    "location": {
      "lat": 39.335,
      "lng": 112.434
    },
    "tier": 2,
    "description": "The Battle of Mayi, part of the Han–Xiongnu Wars."
  },
  {
    "id": "wd-Q3555607",
    "name": "Battle of Ecbatana",
    "year": -128,
    "era": "classical",
    "location": {
      "lat": 4.7961,
      "lng": 48.5158
    },
    "tier": 2,
    "description": "The Battle of Ecbatana, part of the Seleucid–Parthian Wars."
  },
  {
    "id": "wd-Q657620",
    "name": "Battle of Noreia",
    "year": -111,
    "era": "classical",
    "location": {
      "lat": 46.7,
      "lng": 14.4333
    },
    "tier": 2,
    "description": "The Battle of Noreia, part of the Cimbrian War."
  },
  {
    "id": "wd-Q2890102",
    "name": "Battle of Suthul",
    "year": -109,
    "era": "classical",
    "location": {
      "lat": 36.4667,
      "lng": 7.4333
    },
    "tier": 2,
    "description": "The Battle of Suthul, part of the Jugurthine War."
  },
  {
    "id": "wd-Q2890816",
    "name": "Battle of the Muthul",
    "year": -107,
    "era": "classical",
    "location": {
      "lat": 36.291,
      "lng": 8.6749
    },
    "tier": 2,
    "description": "The Battle of the Muthul, part of the Jugurthine War."
  },
  {
    "id": "wd-Q776215",
    "name": "Battle of Arausio",
    "year": -104,
    "era": "classical",
    "location": {
      "lat": 44.1333,
      "lng": 4.8
    },
    "tier": 2,
    "description": "The Battle of Arausio, part of the Cimbrian War."
  },
  {
    "id": "wd-Q774487",
    "name": "Battle of Aquae Sextiae",
    "year": -101,
    "era": "classical",
    "location": {
      "lat": 43.5311,
      "lng": 5.4539
    },
    "tier": 2,
    "description": "The Battle of Aquae Sextiae, part of the Cimbrian War."
  },
  {
    "id": "wd-Q846491",
    "name": "Battle of Vercellae",
    "year": -100,
    "era": "classical",
    "location": {
      "lat": 45.3167,
      "lng": 8.4167
    },
    "tier": 2,
    "description": "The Battle of Vercellae, part of the Cimbrian War."
  },
  {
    "id": "wd-Q85745835",
    "name": "Battle of Firmum",
    "year": -89,
    "era": "classical",
    "location": {
      "lat": 43.1608,
      "lng": 13.7158
    },
    "tier": 3,
    "description": "Battle of Firmum, fought in 89 BCE."
  },
  {
    "id": "wd-Q85745937",
    "name": "Battle of Taenum",
    "year": -89,
    "era": "classical",
    "location": {
      "lat": 41.25,
      "lng": 14.0667
    },
    "tier": 2,
    "description": "The Battle of Taenum, part of the Social War of 91-87 BCE."
  },
  {
    "id": "wd-Q137567",
    "name": "Battle of Asculum",
    "year": -88,
    "era": "classical",
    "location": {
      "lat": 41.995,
      "lng": 13.5472
    },
    "tier": 2,
    "description": "The Battle of Asculum, part of the Social War of 91-87 BCE."
  },
  {
    "id": "wd-Q2708535",
    "name": "Battle of the River Amnias",
    "year": -88,
    "era": "classical",
    "location": {
      "lat": 40.4238,
      "lng": 34.136
    },
    "tier": 2,
    "description": "The Battle of the River Amnias, part of the First Mithridatic War."
  },
  {
    "id": "wd-Q4871069",
    "name": "Battle of Fucine Lake",
    "year": -88,
    "era": "classical",
    "location": {
      "lat": 41.995,
      "lng": 13.5472
    },
    "tier": 2,
    "description": "The Battle of Fucine Lake, part of the Social War of 91-87 BCE."
  },
  {
    "id": "wd-Q15710625",
    "name": "Battle of Protopachium",
    "year": -88,
    "era": "classical",
    "location": {
      "lat": 41.6,
      "lng": 35.0
    },
    "tier": 2,
    "description": "The Battle of Protopachium, part of the First Mithridatic War."
  },
  {
    "id": "wd-Q968551",
    "name": "Battle of Mount Scorobas",
    "year": -87,
    "era": "classical",
    "location": {
      "lat": 41.1167,
      "lng": 30.6333
    },
    "tier": 2,
    "description": "The Battle of Mount Scorobas, part of the First Mithridatic War."
  },
  {
    "id": "wd-Q3636387",
    "name": "Battle of Chaeronea",
    "year": -86,
    "era": "classical",
    "location": {
      "lat": 38.501,
      "lng": 22.864
    },
    "tier": 2,
    "description": "The Battle of Chaeronea, part of the First Mithridatic War."
  },
  {
    "id": "wd-Q233352",
    "name": "Battle of Chaeronea",
    "year": -85,
    "era": "classical",
    "location": {
      "lat": 38.501,
      "lng": 22.864
    },
    "tier": 2,
    "description": "The Battle of Chaeronea, part of the First Mithridatic War."
  },
  {
    "id": "wd-Q1509221",
    "name": "Battle of Orchomenus",
    "year": -85,
    "era": "classical",
    "location": {
      "lat": 38.48,
      "lng": 22.98
    },
    "tier": 2,
    "description": "The Battle of Orchomenus, part of the First Mithridatic War."
  },
  {
    "id": "wd-Q3268397",
    "name": "Battle of Tenedos",
    "year": -85,
    "era": "classical",
    "location": {
      "lat": 39.8167,
      "lng": 26.05
    },
    "tier": 2,
    "description": "The Battle of Tenedos, part of the First Mithridatic War."
  },
  {
    "id": "wd-Q4871811",
    "name": "Battle of Mount Tifata",
    "year": -82,
    "era": "classical",
    "location": {
      "lat": 41.0659,
      "lng": 14.17
    },
    "tier": 2,
    "description": "The Battle of Mount Tifata, part of the Sulla's First Civil War."
  },
  {
    "id": "wd-Q384729",
    "name": "Second Battle of Clusium",
    "year": -81,
    "era": "classical",
    "location": {
      "lat": 43.0167,
      "lng": 11.95
    },
    "tier": 2,
    "description": "The Second Battle of Clusium, part of the Sulla's Civil War."
  },
  {
    "id": "wd-Q1230563",
    "name": "Battle of the Colline Gate",
    "year": -81,
    "era": "classical",
    "location": {
      "lat": 41.9072,
      "lng": 12.4986
    },
    "tier": 2,
    "description": "The Battle of the Colline Gate, part of the Sulla's Civil War."
  },
  {
    "id": "wd-Q2841547",
    "name": "Battle of Faventia",
    "year": -81,
    "era": "classical",
    "location": {
      "lat": 44.2833,
      "lng": 11.8833
    },
    "tier": 2,
    "description": "The Battle of Faventia, part of the Sulla's Civil War."
  },
  {
    "id": "wd-Q5452512",
    "name": "First Battle of Clusium",
    "year": -81,
    "era": "classical",
    "location": {
      "lat": 43.0501,
      "lng": 11.6714
    },
    "tier": 2,
    "description": "The First Battle of Clusium, part of the Sulla's Civil War."
  },
  {
    "id": "wd-Q4871013",
    "name": "Battle of Fidentia",
    "year": -81,
    "era": "classical",
    "location": {
      "lat": 44.8667,
      "lng": 10.0667
    },
    "tier": 2,
    "description": "The Battle of Fidentia, part of the Sulla's Civil War."
  },
  {
    "id": "wd-Q4872231",
    "name": "Battle of Sacriporto",
    "year": -81,
    "era": "classical",
    "location": {
      "lat": 41.7,
      "lng": 13.05
    },
    "tier": 2,
    "description": "The Battle of Sacriporto, part of the Sulla's Civil War."
  },
  {
    "id": "wd-Q12156091",
    "name": "Battle of Sena Gallica",
    "year": -81,
    "era": "classical",
    "location": {
      "lat": 43.7167,
      "lng": 13.2167
    },
    "tier": 2,
    "description": "The Battle of Sena Gallica, part of the Sulla's Civil War."
  },
  {
    "id": "wd-Q4872835",
    "name": "Battle of the Asio River",
    "year": -81,
    "era": "classical",
    "location": {
      "lat": 43.65,
      "lng": 13.3667
    },
    "tier": 2,
    "description": "The Battle of the Asio River, part of the Sulla's Civil War."
  },
  {
    "id": "wd-Q17277303",
    "name": "Battle of Halys",
    "year": -81,
    "era": "classical",
    "location": {
      "lat": 41.7344,
      "lng": 35.9564
    },
    "tier": 2,
    "description": "The Battle of Halys, part of the Second Mithridatic War."
  },
  {
    "id": "wd-Q60524412",
    "name": "Battle of Lauron",
    "year": -75,
    "era": "classical",
    "location": {
      "lat": 39.1522,
      "lng": -0.4425
    },
    "tier": 2,
    "description": "The Battle of Lauron, part of the Sertorian War."
  },
  {
    "id": "wd-Q60524410",
    "name": "Battle of Italica",
    "year": -74,
    "era": "classical",
    "location": {
      "lat": 37.4439,
      "lng": -6.0467
    },
    "tier": 2,
    "description": "The Battle of Italica, part of the Sertorian War."
  },
  {
    "id": "wd-Q60524449",
    "name": "Battle of Sucro",
    "year": -74,
    "era": "classical",
    "location": {
      "lat": 39.1639,
      "lng": -0.2517
    },
    "tier": 2,
    "description": "The Battle of Sucro, part of the Sertorian War."
  },
  {
    "id": "wd-Q60524464",
    "name": "Battle of Valentia",
    "year": -74,
    "era": "classical",
    "location": {
      "lat": 39.4667,
      "lng": -0.375
    },
    "tier": 2,
    "description": "The Battle of Valentia, part of the Sertorian War."
  },
  {
    "id": "wd-Q2331925",
    "name": "Battle of Chalcedon",
    "year": -73,
    "era": "classical",
    "location": {
      "lat": 40.9833,
      "lng": 29.0333
    },
    "tier": 2,
    "description": "The Battle of Chalcedon, part of the Third Mithridatic War."
  },
  {
    "id": "wd-Q972445",
    "name": "Siege of Cyzicus",
    "year": -72,
    "era": "classical",
    "location": {
      "lat": 40.3998,
      "lng": 27.7999
    },
    "tier": 2,
    "description": "The Siege of Cyzicus, part of the Third Mithridatic War."
  },
  {
    "id": "wd-Q2095250",
    "name": "Battle of the Rhyndacus",
    "year": -72,
    "era": "classical",
    "location": {
      "lat": 40.2125,
      "lng": 28.3978
    },
    "tier": 2,
    "description": "The Battle of the Rhyndacus, part of the Third Mithridatic War."
  },
  {
    "id": "wd-Q28729885",
    "name": "Battle of Tenedos",
    "year": -72,
    "era": "classical",
    "location": {
      "lat": 39.8219,
      "lng": 26.0289
    },
    "tier": 2,
    "description": "The Battle of Tenedos, part of the Third Mithridatic War."
  },
  {
    "id": "wd-Q604993",
    "name": "Battle of Cabira",
    "year": -71,
    "era": "classical",
    "location": {
      "lat": 40.5833,
      "lng": 36.9667
    },
    "tier": 2,
    "description": "The Battle of Cabira, part of the Third Mithridatic War."
  },
  {
    "id": "wd-Q233344",
    "name": "Battle of the Silarius River",
    "year": -70,
    "era": "classical",
    "location": {
      "lat": 40.4816,
      "lng": 14.9425
    },
    "tier": 2,
    "description": "The Battle of the Silarius River, part of the Third Servile War."
  },
  {
    "id": "wd-Q2299845",
    "name": "Battle of Tigranocerta",
    "year": -68,
    "era": "classical",
    "location": {
      "lat": 38.1422,
      "lng": 41.0014
    },
    "tier": 2,
    "description": "The Battle of Tigranocerta, part of the Third Mithridatic War."
  },
  {
    "id": "wd-Q647463",
    "name": "Battle of Artaxata",
    "year": -67,
    "era": "classical",
    "location": {
      "lat": 39.9539,
      "lng": 44.5506
    },
    "tier": 2,
    "description": "The Battle of Artaxata, part of the Third Mithridatic War."
  },
  {
    "id": "wd-Q2464364",
    "name": "Battle of Zela",
    "year": -66,
    "era": "classical",
    "location": {
      "lat": 40.3,
      "lng": 35.8833
    },
    "tier": 2,
    "description": "The Battle of Zela, part of the Third Mithridatic War."
  },
  {
    "id": "wd-Q3310201",
    "name": "Battle of Korakesion",
    "year": -66,
    "era": "classical",
    "location": {
      "lat": 36.53,
      "lng": 32.01
    },
    "tier": 2,
    "description": "The Battle of Korakesion, part of the Pompey's campaign against pirates."
  },
  {
    "id": "wd-Q2707112",
    "name": "Battle of the Lycus",
    "year": -65,
    "era": "classical",
    "location": {
      "lat": 40.3053,
      "lng": 37.8306
    },
    "tier": 2,
    "description": "The Battle of the Lycus, part of the Third Mithridatic War."
  },
  {
    "id": "wd-Q1628304",
    "name": "Battle of Magetobria",
    "year": -62,
    "era": "classical",
    "location": {
      "lat": 47.8375,
      "lng": 6.4936
    },
    "tier": 2,
    "description": "The Battle of Magetobria, part of the Gallic War."
  },
  {
    "id": "battle-of-bibracte",
    "name": "Battle of Bibracte",
    "year": -58,
    "era": "classical",
    "location": {
      "lat": 46.93,
      "lng": 4.04
    },
    "tier": 2,
    "description": "Caesar's first major engagement in Gaul, defeating the migrating Helvetii tribe and establishing Roman authority in the region.",
    "belligerents": [
      "Roman Republic",
      "Helvetii"
    ],
    "result": "Roman victory",
    "commanders": [
      "Julius Caesar",
      "Diviciacus of the Helvetii"
    ],
    "warName": "Gallic Wars",
    "significance": 3
  },
  {
    "id": "wd-Q635028",
    "name": "Battle of Bibracte",
    "year": -57,
    "era": "classical",
    "location": {
      "lat": 46.9167,
      "lng": 4.0333
    },
    "tier": 2,
    "description": "The Battle of Bibracte, part of the Gallic War."
  },
  {
    "id": "wd-Q1267513",
    "name": "Battle of Vosges",
    "year": -57,
    "era": "classical",
    "location": {
      "lat": 47.75,
      "lng": 7.3333
    },
    "tier": 2,
    "description": "The Battle of Vosges, part of the Gallic War."
  },
  {
    "id": "wd-Q1274566",
    "name": "Battle of the Arar",
    "year": -57,
    "era": "classical",
    "location": {
      "lat": 45.7275,
      "lng": 4.8178
    },
    "tier": 2,
    "description": "The Battle of the Arar, part of the Gallic War."
  },
  {
    "id": "wd-Q1260622",
    "name": "Battle of the Axona",
    "year": -56,
    "era": "classical",
    "location": {
      "lat": 49.4336,
      "lng": 2.8469
    },
    "tier": 2,
    "description": "The Battle of the Axona, part of the Gallic War."
  },
  {
    "id": "wd-Q1268733",
    "name": "Battle of the Sabis",
    "year": -56,
    "era": "classical",
    "location": {
      "lat": 50.2333,
      "lng": 3.4417
    },
    "tier": 2,
    "description": "The Battle of the Sabis, part of the Gallic War."
  },
  {
    "id": "wd-Q46861274",
    "name": "Siege of the Atuatuci",
    "year": -56,
    "era": "classical",
    "location": {
      "lat": 50.7794,
      "lng": 5.4631
    },
    "tier": 2,
    "description": "The Siege of the Atuatuci, part of the Gallic War."
  },
  {
    "id": "wd-Q4871929",
    "name": "Battle of Octodurus",
    "year": -56,
    "era": "classical",
    "location": {
      "lat": 46.1,
      "lng": 7.0667
    },
    "tier": 2,
    "description": "The Battle of Octodurus, part of the Gallic War."
  },
  {
    "id": "wd-Q742306",
    "name": "Caesar's invasions of Britain",
    "year": -55,
    "era": "classical",
    "location": {
      "lat": 51.1295,
      "lng": 1.3089
    },
    "tier": 2,
    "description": "The Caesar's invasions of Britain, part of the Gallic War."
  },
  {
    "id": "wd-Q2890308",
    "name": "Battle of Vernix",
    "year": -55,
    "era": "classical",
    "location": {
      "lat": 48.7164,
      "lng": -1.2236
    },
    "tier": 2,
    "description": "The Battle of Vernix, part of the Gallic War."
  },
  {
    "id": "wd-Q2462109",
    "name": "Battle of Morbihan",
    "year": -55,
    "era": "classical",
    "location": {
      "lat": 47.5,
      "lng": -2.8667
    },
    "tier": 2,
    "description": "The Battle of Morbihan, part of the Gallic War."
  },
  {
    "id": "wd-Q2505574",
    "name": "Ambiorix's revolt",
    "year": -53,
    "era": "classical",
    "location": {
      "lat": 50.7833,
      "lng": 5.4667
    },
    "tier": 2,
    "description": "The Ambiorix's revolt, part of the Gallic War."
  },
  {
    "id": "wd-Q15934409",
    "name": "Siege of Namur",
    "year": -53,
    "era": "classical",
    "location": {
      "lat": 50.4667,
      "lng": 4.8667
    },
    "tier": 2,
    "description": "The Siege of Namur, part of the Gallic War."
  },
  {
    "id": "wd-Q205887",
    "name": "Battle of Carrhae",
    "year": -52,
    "era": "classical",
    "location": {
      "lat": 36.8667,
      "lng": 39.0333
    },
    "tier": 2,
    "description": "The Battle of Carrhae, part of the Crassus' Parthian campaign."
  },
  {
    "id": "battle-of-alesia",
    "name": "Siege of Alesia",
    "year": -52,
    "era": "classical",
    "location": {
      "lat": 47.54,
      "lng": 4.5
    },
    "tier": 1,
    "description": "Caesar besieged Vercingetorix at Alesia while simultaneously defending against a massive Gallic relief army. His double ring of fortifications is a masterwork of military engineering.",
    "belligerents": [
      "Roman Republic",
      "Gallic Confederation"
    ],
    "result": "Decisive Roman victory",
    "commanders": [
      "Julius Caesar",
      "Vercingetorix"
    ],
    "troopStrength": {
      "side1": 60000,
      "side2": 80000
    },
    "casualties": {
      "side1": 12000,
      "side2": 12000
    },
    "warName": "Gallic Wars",
    "significance": 1
  },
  {
    "id": "wd-Q131386",
    "name": "Battle of Alesia",
    "year": -51,
    "era": "classical",
    "location": {
      "lat": 47.5372,
      "lng": 4.5003
    },
    "tier": 1,
    "description": "The Battle of Alesia, part of the Gallic War."
  },
  {
    "id": "wd-Q1972070",
    "name": "Battle of Lutetia",
    "year": -51,
    "era": "classical",
    "location": {
      "lat": 48.85,
      "lng": 2.35
    },
    "tier": 2,
    "description": "The Battle of Lutetia, part of the Gallic War."
  },
  {
    "id": "wd-Q2236672",
    "name": "Battle of Vingeanne",
    "year": -51,
    "era": "classical",
    "location": {
      "lat": 45.7083,
      "lng": 3.125
    },
    "tier": 2,
    "description": "The Battle of Vingeanne, part of the Gallic War."
  },
  {
    "id": "wd-Q4087405",
    "name": "Siege of Avaricum",
    "year": -51,
    "era": "classical",
    "location": {
      "lat": 47.0836,
      "lng": 2.3956
    },
    "tier": 2,
    "description": "The Siege of Avaricum, part of the Gallic War."
  },
  {
    "id": "wd-Q4870221",
    "name": "Battle of Agendicum",
    "year": -51,
    "era": "classical",
    "location": {
      "lat": 48.85,
      "lng": 2.35
    },
    "tier": 3,
    "description": "Battle of Agendicum, fought in 51 BCE."
  },
  {
    "id": "wd-Q109377210",
    "name": "Siege of Antioch",
    "year": -50,
    "era": "classical",
    "location": {
      "lat": 36.2045,
      "lng": 36.1813
    },
    "tier": 2,
    "description": "The Siege of Antioch, part of the Roman–Parthian Wars."
  },
  {
    "id": "wd-Q619030",
    "name": "Battle of the Bagradas River",
    "year": -48,
    "era": "classical",
    "location": {
      "lat": 36.88,
      "lng": 9.965
    },
    "tier": 2,
    "description": "The Battle of the Bagradas River, part of the Caesar's Civil War."
  },
  {
    "id": "wd-Q2291971",
    "name": "Battle of Ilerda",
    "year": -48,
    "era": "classical",
    "location": {
      "lat": 41.3667,
      "lng": -0.5
    },
    "tier": 2,
    "description": "The Battle of Ilerda, part of the Caesar's Civil War."
  },
  {
    "id": "wd-Q2416094",
    "name": "Battle of Utica",
    "year": -48,
    "era": "classical",
    "location": {
      "lat": 37.0579,
      "lng": 10.0626
    },
    "tier": 2,
    "description": "The Battle of Utica, part of the Caesar's Civil War."
  },
  {
    "id": "wd-Q107304813",
    "name": "Siege of Curicta",
    "year": -48,
    "era": "classical",
    "location": {
      "lat": 45.0667,
      "lng": 14.6
    },
    "tier": 3,
    "description": "Siege of Curicta, fought in 48 BCE."
  },
  {
    "id": "battle-of-pharsalus",
    "name": "Battle of Pharsalus",
    "year": -48,
    "era": "classical",
    "location": {
      "lat": 39.3,
      "lng": 22.38
    },
    "tier": 1,
    "description": "Caesar defeated Pompey's numerically superior forces in the decisive battle of the Roman Civil War, effectively ending the Roman Republic.",
    "belligerents": [
      "Caesar's legions",
      "Pompey's forces"
    ],
    "result": "Caesarean victory",
    "commanders": [
      "Julius Caesar",
      "Pompey the Great"
    ],
    "troopStrength": {
      "side1": 22000,
      "side2": 45000
    },
    "casualties": {
      "side1": 1200,
      "side2": 15000
    },
    "warName": "Caesar's Civil War",
    "significance": 1
  },
  {
    "id": "wd-Q203681",
    "name": "Battle of Pharsalus",
    "year": -47,
    "era": "classical",
    "location": {
      "lat": 39.3,
      "lng": 22.3833
    },
    "tier": 1,
    "description": "The Battle of Pharsalus, part of the Caesar's Civil War."
  },
  {
    "id": "wd-Q525325",
    "name": "Battle of Dyrrhachium",
    "year": -47,
    "era": "classical",
    "location": {
      "lat": 41.3167,
      "lng": 19.45
    },
    "tier": 2,
    "description": "The Battle of Dyrrhachium, part of the Caesar's Civil War."
  },
  {
    "id": "wd-Q2889520",
    "name": "Battle of Nicopolis",
    "year": -47,
    "era": "classical",
    "location": {
      "lat": 40.3,
      "lng": 37.8333
    },
    "tier": 2,
    "description": "The Battle of Nicopolis, part of the Pontic War."
  },
  {
    "id": "wd-Q11688130",
    "name": "Battle of Tauris",
    "year": -47,
    "era": "classical",
    "location": {
      "lat": 43.0833,
      "lng": 16.7
    },
    "tier": 2,
    "description": "The Battle of Tauris, part of the Caesar's Civil War."
  },
  {
    "id": "wd-Q971507",
    "name": "Battle of Zela",
    "year": -46,
    "era": "classical",
    "location": {
      "lat": 40.3,
      "lng": 35.8833
    },
    "tier": 2,
    "description": "The Battle of Zela, part of the Caesar's Civil War."
  },
  {
    "id": "wd-Q1975400",
    "name": "Battle of the Nile",
    "year": -46,
    "era": "classical",
    "location": {
      "lat": 30.9,
      "lng": 31.1167
    },
    "tier": 2,
    "description": "The Battle of the Nile, part of the Alexandrian War."
  },
  {
    "id": "wd-Q849653",
    "name": "Battle of Thapsus",
    "year": -45,
    "era": "classical",
    "location": {
      "lat": 35.6244,
      "lng": 11.0478
    },
    "tier": 2,
    "description": "The Battle of Thapsus, part of the Caesar's Civil War."
  },
  {
    "id": "wd-Q762458",
    "name": "Battle of Ruspina",
    "year": -45,
    "era": "classical",
    "location": {
      "lat": 35.7667,
      "lng": 10.8167
    },
    "tier": 2,
    "description": "The Battle of Ruspina, part of the Caesar's Civil War."
  },
  {
    "id": "wd-Q106855846",
    "name": "Battle of Ascurum",
    "year": -45,
    "era": "classical",
    "location": {
      "lat": 42.85,
      "lng": 13.57
    },
    "tier": 2,
    "description": "The Battle of Ascurum, part of the Caesar's Civil War."
  },
  {
    "id": "wd-Q28662986",
    "name": "Battle of Hippo Regius",
    "year": -45,
    "era": "classical",
    "location": {
      "lat": 36.8832,
      "lng": 7.7519
    },
    "tier": 2,
    "description": "The Battle of Hippo Regius, part of the Caesar's Civil War."
  },
  {
    "id": "wd-Q516760",
    "name": "Battle of Munda",
    "year": -44,
    "era": "classical",
    "location": {
      "lat": 37.55,
      "lng": -4.85
    },
    "tier": 2,
    "description": "The Battle of Munda, part of the Caesar's Civil War."
  },
  {
    "id": "wd-Q29513472",
    "name": "Battle of Lauro",
    "year": -44,
    "era": "classical",
    "location": {
      "lat": 37.2667,
      "lng": -4.8167
    },
    "tier": 2,
    "description": "The Battle of Lauro, part of the Caesar's Civil War."
  },
  {
    "id": "wd-Q335330",
    "name": "Battle of Philippi",
    "year": -41,
    "era": "classical",
    "location": {
      "lat": 41.0131,
      "lng": 24.2864
    },
    "tier": 2,
    "description": "The Battle of Philippi, part of the Liberators' Civil War."
  },
  {
    "id": "wd-Q960915",
    "name": "Battle of Perugia",
    "year": -40,
    "era": "classical",
    "location": {
      "lat": 43.1107,
      "lng": 12.3892
    },
    "tier": 2,
    "description": "The Battle of Perugia, part of the Perusine War."
  },
  {
    "id": "wd-Q4870287",
    "name": "Battle of Amanus Pass",
    "year": -38,
    "era": "classical",
    "location": {
      "lat": 36.4795,
      "lng": 36.232
    },
    "tier": 2,
    "description": "The Battle of Amanus Pass, part of the Pompeian–Parthian Invasion of 40 BCE."
  },